stop_id,stop_name,stop_lat,stop_lon,location_type,parent_station,stop_timezone,wheelchair_boarding,platform_code,zone_id
TEC:Baegd741,Gerompont Avenue des Déportés 74,50.651934,4.890264,0,stoparea:TEC:Baegd74,,1,,
TEC:Baegd742,Gerompont Avenue des Déportés 74,50.651979,4.890095,0,stoparea:TEC:Baegd74,,1,,
TEC:Baegegl1,Autre-Eglise Eglise,50.66308,4.923698,0,stoparea:TEC:Baegegl,,1,,
TEC:Baegegl2,Autre-Eglise Eglise,50.663152,4.923614,0,stoparea:TEC:Baegegl,,1,,
TEC:Baeggar1,Autre-Eglise Gare,50.66386,4.918403,0,stoparea:TEC:Baeggar,,1,,
TEC:Baeggar2,Autre-Eglise Gare,50.663968,4.918362,0,stoparea:TEC:Baeggar,,1,,
TEC:Baegm501,Autre-Eglise Rue de la Mêlée 50,50.659461,4.909413,0,stoparea:TEC:Baegm50,,1,,
TEC:Baegm502,Autre-Eglise Rue de la Mêlée 50,50.659828,4.909799,0,stoparea:TEC:Baegm50,,1,,
TEC:Baegpon1,Autre-Eglise Pont,50.655266,4.898801,0,stoparea:TEC:Baegpon,,1,,
TEC:Baegpon2,Autre-Eglise Pont,50.655435,4.899312,0,stoparea:TEC:Baegpon,,1,,
TEC:Baegpon3,Autre-Eglise Pont,50.654903,4.897694,0,stoparea:TEC:Baegpon,,1,,
TEC:Baisbar1,Aische-en-Refail Baraque,50.598666,4.823782,0,stoparea:TEC:Baisbar,,1,,
TEC:Balsbeg1,Alsemberg Begraafplaats van Vorst,50.755831,4.332145,0,stoparea:TEC:Balsbeg,,1,,
TEC:Balsbeg2,Alsemberg Begraafplaats van Vorst,50.756299,4.331804,0,stoparea:TEC:Balsbeg,,1,,
TEC:Balsnay1,Alsemberg Gensberg,50.746626,4.332407,0,stoparea:TEC:Balsnay,,1,,
TEC:Balsnay2,Alsemberg Gensberg,50.746518,4.332081,0,stoparea:TEC:Balsnay,,1,,
TEC:Balsnie1,Alsemberg Grootevelde,50.74953,4.333992,0,stoparea:TEC:Balsnie,,1,,
TEC:Balsnie2,Alsemberg Grootevelde,50.749584,4.333779,0,stoparea:TEC:Balsnie,,1,,
TEC:Balssvi1,Alsemberg Sint-Victor,50.741799,4.334465,0,stoparea:TEC:Balssvi,,1,,
TEC:Balssvi2,Alsemberg Sint-Victor,50.741682,4.334437,0,stoparea:TEC:Balssvi,,1,,
TEC:Balswin2,Alsemberg Winderickxplein,50.739696,4.337937,0,stoparea:TEC:Balswin,,1,,
TEC:Balswin3,Alsemberg Winderickxplein,50.739741,4.338121,0,stoparea:TEC:Balswin,,1,,
TEC:Balswsa1,Alsemberg Rondenbos,50.751625,4.333381,0,stoparea:TEC:Balswsa,,1,,
TEC:Balswsa2,Alsemberg Rondenbos,50.751606,4.333182,0,stoparea:TEC:Balswsa,,1,,
TEC:Balswwe1,Alsemberg De Meent,50.74356,4.331616,0,stoparea:TEC:Balswwe,,1,,
TEC:Balswwe2,Alsemberg De Meent,50.743102,4.331574,0,stoparea:TEC:Balswwe,,1,,
TEC:Barcast1,Archennes Ancienne Station,50.74782,4.69169,0,stoparea:TEC:Barcast,,1,,
TEC:Barcast2,Archennes Ancienne Station,50.747721,4.691632,0,stoparea:TEC:Barcast,,1,,
TEC:Barcbav1,Archennes Bavay,50.749939,4.68605,0,stoparea:TEC:Barcbav,,1,,
TEC:Barcbav2,Archennes Bavay,50.749849,4.685965,0,stoparea:TEC:Barcbav,,1,,
TEC:Barchez1,Archennes Hézidelle,50.75337,4.666985,0,stoparea:TEC:Barchez,,1,,
TEC:Barchez2,Archennes Hézidelle,50.753225,4.667083,0,stoparea:TEC:Barchez,,1,,
TEC:Barchoc1,Archennes Hocaille,50.751495,4.672244,0,stoparea:TEC:Barchoc,,1,,
TEC:Barchoc2,Archennes Hocaille,50.751387,4.672243,0,stoparea:TEC:Barchoc,,1,,
TEC:Barcpre1,Archennes Préval,50.751079,4.680106,0,stoparea:TEC:Barcpre,,1,,
TEC:Barcpre2,Archennes Préval,50.750908,4.680289,0,stoparea:TEC:Barcpre,,1,,
TEC:Barcsta1,Archennes Station,50.754423,4.662796,0,stoparea:TEC:Barcsta,,1,,
TEC:Barcsta2,Archennes Station,50.754315,4.662739,0,stoparea:TEC:Barcsta,,1,,
TEC:Barqbar1,Arquennes Bois d'Arpes,50.578479,4.295768,0,stoparea:TEC:Barqbar,,1,,
TEC:Barqbar2,Arquennes Bois d'Arpes,50.578525,4.296093,0,stoparea:TEC:Barqbar,,1,,
TEC:Barqbco1,Arquennes Bon Conseil,50.571342,4.283173,0,stoparea:TEC:Barqbco,,1,,
TEC:Barqbco2,Arquennes Bon Conseil,50.571558,4.284429,0,stoparea:TEC:Barqbco,,1,,
TEC:Barqhpe1,Arquennes Hameau Petit,50.572704,4.289269,0,stoparea:TEC:Barqhpe,,1,,
TEC:Barqhpe2,Arquennes Hameau Petit,50.572623,4.289453,0,stoparea:TEC:Barqhpe,,1,,
TEC:Barqhro1,Arquennes Hameau Roland,50.560838,4.278224,0,stoparea:TEC:Barqhro,,1,,
TEC:Barqhro2,Arquennes Hameau Roland,50.56144,4.2789,0,stoparea:TEC:Barqhro,,1,,
TEC:Barqhro4,Arquennes Hameau Roland,50.56143,4.277207,0,stoparea:TEC:Barqhro,,1,,
TEC:Barqpla1,Arquennes Place,50.567308,4.274683,0,stoparea:TEC:Barqpla,,1,,
TEC:Barqpla2,Arquennes Place,50.567263,4.27481,0,stoparea:TEC:Barqpla,,1,,
TEC:Barqpwa1,Arquennes Pont de Warchais,50.566127,4.282081,0,stoparea:TEC:Barqpwa,,1,,
TEC:Barqpwa2,Arquennes Pont de Warchais,50.565713,4.282026,0,stoparea:TEC:Barqpwa,,1,,
TEC:Barqres1,Arquennes Résidence,50.569708,4.285872,0,stoparea:TEC:Barqres,,1,,
TEC:Barqres2,Arquennes Résidence,50.569618,4.286056,0,stoparea:TEC:Barqres,,1,,
TEC:Bauddel1,Auderghem Métro Delta,50.818192,4.40447,0,stoparea:TEC:Bauddel,,1,,
TEC:Bauddel2,Auderghem Métro Delta,50.817446,4.405207,0,stoparea:TEC:Bauddel,,1,,
TEC:Baudhan1,Auderghem Hankar,50.821869,4.405509,0,stoparea:TEC:Baudhan,,1,,
TEC:Baudhan2,Auderghem Hankar,50.82177,4.405424,0,stoparea:TEC:Baudhan,,1,,
TEC:Baudhde1,Auderghem Herrmann-Debroux,50.812519,4.428104,0,stoparea:TEC:Baudhde,,1,,
TEC:Baudhde2,Auderghem Herrmann-Debroux,50.812285,4.429083,0,stoparea:TEC:Baudhde,,1,,
TEC:Baudsju1,Auderghem Saint-Julien,50.821086,4.408219,0,stoparea:TEC:Baudsju,,1,,
TEC:Baudsju2,Auderghem Saint-Julien,50.820591,4.409481,0,stoparea:TEC:Baudsju,,1,,
TEC:Baudsta2,Auderghem Rouge-Cloitre,50.811461,4.439539,0,stoparea:TEC:Baudsta,,1,,
TEC:Baudstr1,Auderghem Stratégie,50.824019,4.40087,0,stoparea:TEC:Baudstr,,1,,
TEC:Baudstr2,Auderghem Stratégie,50.8241,4.400486,0,stoparea:TEC:Baudstr,,1,,
TEC:Baudtri1,Auderghem Triomphe,50.817151,4.400226,0,stoparea:TEC:Baudtri,,1,,
TEC:Baudtri2,Auderghem Triomphe,50.817025,4.400567,0,stoparea:TEC:Baudtri,,1,,
TEC:Baudulb1,Auderghem Ulb Jardin Massart,50.81346,4.433427,0,stoparea:TEC:Baudulb,,1,,
TEC:Baudulb2,Auderghem Ulb Jardin Massart,50.813109,4.43415,0,stoparea:TEC:Baudulb,,1,,
TEC:Baudvdr1,Auderghem Van Drommen,50.819178,4.414816,0,stoparea:TEC:Baudvdr,,1,,
TEC:Baudvdr2,Auderghem Van Drommen,50.818827,4.41561,0,stoparea:TEC:Baudvdr,,1,,
TEC:Baudvdu1,Auderghem Val Duc,50.817566,4.420973,0,stoparea:TEC:Baudvdu,,1,,
TEC:Baudvdu2,Auderghem Val Duc,50.817674,4.419909,0,stoparea:TEC:Baudvdu,,1,,
TEC:Baudwav1,Auderghem Shopping,50.816845,4.424775,0,stoparea:TEC:Baudwav,,1,,
TEC:Baudwav2,Auderghem Shopping,50.815307,4.42571,0,stoparea:TEC:Baudwav,,1,,
TEC:Bbaldot1,Boignee Dottiats,50.504776,4.62194,0,stoparea:TEC:Bbaldot,,1,,
TEC:Bbaltba1,Balatre Trou de Balâtre,50.503373,4.626289,0,stoparea:TEC:Bbaltba,,1,,
TEC:Bbalvil1,Balatre Village,50.501139,4.639949,0,stoparea:TEC:Bbalvil,,1,,
TEC:Bbaualz1,Baulers Alzémont,50.607845,4.360512,0,stoparea:TEC:Bbaualz,,1,,
TEC:Bbaualz2,Baulers Alzémont,50.607746,4.360625,0,stoparea:TEC:Bbaualz,,1,,
TEC:Bbaubon1,Baulers Bonaparte,50.614153,4.341253,0,stoparea:TEC:Bbaubon,,1,,
TEC:Bbaubru1,Baulers Chaussée de Bruxelles,50.610313,4.336748,0,stoparea:TEC:Bbaubru,,1,,
TEC:Bbaubru2,Baulers Chaussée de Bruxelles,50.610178,4.336395,0,stoparea:TEC:Bbaubru,,1,,
TEC:Bbaucai1,Baulers Rue aux Cailloux,50.612016,4.359565,0,stoparea:TEC:Bbaucai,,1,,
TEC:Bbaucai2,Baulers Rue aux Cailloux,50.612008,4.360144,0,stoparea:TEC:Bbaucai,,1,,
TEC:Bbaucba1,Baulers Cité Baulers,50.606225,4.347827,0,stoparea:TEC:Bbaucba,,1,,
TEC:Bbaucba2,Baulers Cité Baulers,50.606271,4.348575,0,stoparea:TEC:Bbaucba,,1,,
TEC:Bbauegl1,Baulers Eglise,50.613247,4.352543,0,stoparea:TEC:Bbauegl,,1,,
TEC:Bbauegl2,Baulers Eglise,50.613319,4.352458,0,stoparea:TEC:Bbauegl,,1,,
TEC:Bbauham1,Baulers Hameau,50.610048,4.364595,0,stoparea:TEC:Bbauham,,1,,
TEC:Bbauham2,Baulers Hameau,50.609967,4.364722,0,stoparea:TEC:Bbauham,,1,,
TEC:Bbaulil1,Baulers Avenue des Lilas,50.605928,4.34558,0,stoparea:TEC:Bbaulil,,1,,
TEC:Bbaulil2,Baulers Avenue des Lilas,50.605767,4.345637,0,stoparea:TEC:Bbaulil,,1,,
TEC:Bbaulos1,Baulers Rue Lossignol,50.612599,4.346934,0,stoparea:TEC:Bbaulos,,1,,
TEC:Bbautri1,Baulers Trigodet,50.606802,4.352827,0,stoparea:TEC:Bbautri,,1,,
TEC:Bbautri2,Baulers Trigodet,50.606703,4.352983,0,stoparea:TEC:Bbautri,,1,,
TEC:Bbbksth1,Bierbeek Sint-Theresiakapel,50.800542,4.708749,0,stoparea:TEC:Bbbksth,,1,,
TEC:Bbbksth2,Bierbeek Sint-Theresiakapel,50.80118,4.708796,0,stoparea:TEC:Bbbksth,,1,,
TEC:Bbch4br1,Braine-le-Chateau Quatre Bras,50.682989,4.272218,0,stoparea:TEC:Bbch4br,,1,,
TEC:Bbch4br2,Braine-le-Chateau Quatre Bras,50.682872,4.272303,0,stoparea:TEC:Bbch4br,,1,,
TEC:Bbch4br3,Braine-le-Chateau Quatre Bras,50.684481,4.272229,0,stoparea:TEC:Bbch4br,,1,,
TEC:Bbch4br4,Braine-le-Chateau Quatre Bras,50.68352,4.272528,0,stoparea:TEC:Bbch4br,,1,,
TEC:Bbch4br5,Braine-le-Chateau Quatre Bras,50.682972,4.272996,0,stoparea:TEC:Bbch4br,,1,,
TEC:Bbch4br6,Braine-le-Chateau Quatre Bras,50.682208,4.272998,0,stoparea:TEC:Bbch4br,,1,,
TEC:Bbchboi1,Braine-le-Chateau Les Boignées,50.678244,4.300582,0,stoparea:TEC:Bbchboi,,1,,
TEC:Bbchcab1,Braine-le-Chateau Rue Cabiau,50.677965,4.274167,0,stoparea:TEC:Bbchcab,,1,,
TEC:Bbchcab2,Braine-le-Chateau Rue Cabiau,50.679332,4.274008,0,stoparea:TEC:Bbchcab,,1,,
TEC:Bbchcbl1,Braine-le-Chateau Cheval Blanc,50.691922,4.269143,0,stoparea:TEC:Bbchcbl,,1,,
TEC:Bbchcbl2,Braine-le-Chateau Cheval Blanc,50.690646,4.269415,0,stoparea:TEC:Bbchcbl,,1,,
TEC:Bbchdev1,Braine-le-Chateau Rue des Dévoués,50.67491,4.275191,0,stoparea:TEC:Bbchdev,,1,,
TEC:Bbchdev2,Braine-le-Chateau Rue des Dévoués,50.675018,4.275347,0,stoparea:TEC:Bbchdev,,1,,
TEC:Bbchdra1,Braine-le-Chateau Le Drabbe,50.68334,4.283905,0,stoparea:TEC:Bbchdra,,1,,
TEC:Bbchdra2,Braine-le-Chateau Le Drabbe,50.683071,4.284812,0,stoparea:TEC:Bbchdra,,1,,
TEC:Bbchgod1,Braine-le-Chateau Godeaux,50.681209,4.251832,0,stoparea:TEC:Bbchgod,,1,,
TEC:Bbchgod2,Braine-le-Chateau Godeaux,50.681146,4.252243,0,stoparea:TEC:Bbchgod,,1,,
TEC:Bbchm381,Braine-le-Chateau Maison 38,50.694951,4.268047,0,stoparea:TEC:Bbchm38,,1,,
TEC:Bbchm382,Braine-le-Chateau Maison 38,50.694466,4.268005,0,stoparea:TEC:Bbchm38,,1,,
TEC:Bbchmai1,Braine-le-Chateau La Maisonnée,50.666178,4.28354,0,stoparea:TEC:Bbchmai,,1,,
TEC:Bbchmai2,Braine-le-Chateau La Maisonnée,50.666133,4.284148,0,stoparea:TEC:Bbchmai,,1,,
TEC:Bbchmin1,Braine-le-Chateau Les Minous,50.670056,4.276799,0,stoparea:TEC:Bbchmin,,1,,
TEC:Bbchmin2,Braine-le-Chateau Les Minous,50.669598,4.277126,0,stoparea:TEC:Bbchmin,,1,,
TEC:Bbchndb1,Braine-le-Chateau Rue Notre Dame au Bois,50.680489,4.261116,0,stoparea:TEC:Bbchndb,,1,,
TEC:Bbchndb2,Braine-le-Chateau Rue Notre Dame au Bois,50.680291,4.260579,0,stoparea:TEC:Bbchndb,,1,,
TEC:Bbchpil1,Braine-le-Chateau Pilori,50.682473,4.267507,0,stoparea:TEC:Bbchpil,,1,,
TEC:Bbchpil2,Braine-le-Chateau Pilori,50.681806,4.265924,0,stoparea:TEC:Bbchpil,,1,,
TEC:Bbchrra2,Braine-le-Chateau Rue des Radoux,50.683945,4.276475,0,stoparea:TEC:Bbchrra,,1,,
TEC:Bbchrra3,Braine-le-Chateau Rue des Radoux,50.684008,4.276079,0,stoparea:TEC:Bbchrra,,1,,
TEC:Bbchsac1,Braine-le-Chateau Rue du Sacrement,50.669364,4.304202,0,stoparea:TEC:Bbchsac,,1,,
TEC:Bbchtry1,Wauthier-Braine Rue du Try,50.681803,4.297605,0,stoparea:TEC:Bbchtry,,1,,
TEC:Bbchume1,Braine-le-Chateau Usines Meurice,50.680357,4.245821,0,stoparea:TEC:Bbchume,,1,,
TEC:Bbchume2,Braine-le-Chateau Usines Meurice,50.680295,4.246628,0,stoparea:TEC:Bbchume,,1,,
TEC:Bbcoben1,Braine-le-Comte Barrière d'Enghien,50.617573,4.139044,0,stoparea:TEC:Bbcoben,,1,,
TEC:Bbcoben2,Braine-le-Comte Barrière d'Enghien,50.61795,4.138957,0,stoparea:TEC:Bbcoben,,1,,
TEC:Bbcocou1,Braine-le-Comte Coulette,50.611894,4.140696,0,stoparea:TEC:Bbcocou,,1,,
TEC:Bbcocou2,Braine-le-Comte Coulette,50.612119,4.140582,0,stoparea:TEC:Bbcocou,,1,,
TEC:Bbcocvb1,Braine-le-Comte Clos du Vert Bois,50.605281,4.178051,0,stoparea:TEC:Bbcocvb,,1,,
TEC:Bbcocvb2,Braine-le-Comte Clos du Vert Bois,50.604859,4.178448,0,stoparea:TEC:Bbcocvb,,1,,
TEC:Bbcodam3,Braine-le-Comte Chemin des Dames,50.608137,4.155534,0,stoparea:TEC:Bbcodam,,1,,
TEC:Bbcodam4,Braine-le-Comte Chemin des Dames,50.607812,4.154561,0,stoparea:TEC:Bbcodam,,1,,
TEC:Bbcoeca1,Braine-le-Comte Route d'Ecaussinnes,50.603453,4.131908,0,stoparea:TEC:Bbcoeca,,1,,
TEC:Bbcoeco1,Braine-le-Comte Ecoles,50.607438,4.133343,0,stoparea:TEC:Bbcoeco,,1,,
TEC:Bbcoeco2,Braine-le-Comte Ecoles,50.60751,4.133145,0,stoparea:TEC:Bbcoeco,,1,,
TEC:Bbcogar1,Braine-le-Comte Gare,50.605487,4.13752,0,stoparea:TEC:Bbcogar,,1,,
TEC:Bbcogar2,Braine-le-Comte Gare,50.60555,4.137576,0,stoparea:TEC:Bbcogar,,1,,
TEC:Bbcogpl1,Braine-le-Comte Place,50.610995,4.135826,0,stoparea:TEC:Bbcogpl,,1,,
TEC:Bbcogpl2,Braine-le-Comte Place,50.610256,4.135208,0,stoparea:TEC:Bbcogpl,,1,,
TEC:Bbcohou3,Braine-le-Comte Houssière,50.609701,4.165389,0,stoparea:TEC:Bbcohou,,1,,
TEC:Bbcohou4,Braine-le-Comte Houssière,50.609576,4.165813,0,stoparea:TEC:Bbcohou,,1,,
TEC:Bbcolno1,Braine-le-Comte Lion Noir,50.61461,4.136769,0,stoparea:TEC:Bbcolno,,1,,
TEC:Bbcolno2,Braine-le-Comte Lion Noir,50.614349,4.136445,0,stoparea:TEC:Bbcolno,,1,,
TEC:Bbcomar1,Braine-le-Comte Marouset,50.609397,4.171578,0,stoparea:TEC:Bbcomar,,1,,
TEC:Bbcomar2,Braine-le-Comte Marouset,50.609271,4.171578,0,stoparea:TEC:Bbcomar,,1,,
TEC:Bbcopre1,Braine-le-Comte Prestremont,50.62265,4.142481,0,stoparea:TEC:Bbcopre,,1,,
TEC:Bbcopre2,Braine-le-Comte Prestremont,50.622658,4.142128,0,stoparea:TEC:Bbcopre,,1,,
TEC:Bbcoroy1,Braine-le-Comte Chemin Royal,50.626692,4.145232,0,stoparea:TEC:Bbcoroy,,1,,
TEC:Bbcoroy2,Braine-le-Comte Chemin Royal,50.626691,4.144893,0,stoparea:TEC:Bbcoroy,,1,,
TEC:Bbcoser1,Braine-le-Comte Rue de Serbie,50.605604,4.132985,0,stoparea:TEC:Bbcoser,,1,,
TEC:Bbcoser2,Braine-le-Comte Rue de Serbie,50.605514,4.132943,0,stoparea:TEC:Bbcoser,,1,,
TEC:Bbcoubo2,Braine-le-Comte Bourleau,50.606946,4.143348,0,stoparea:TEC:Bbcoubo,,1,,
TEC:Bbcoubo3,Braine-le-Comte Bourleau,50.607144,4.143389,0,stoparea:TEC:Bbcoubo,,1,,
TEC:Bbea3he1,Beauvechain Rue des 3 Héros,50.761464,4.817562,0,stoparea:TEC:Bbea3he,,1,,
TEC:Bbea3he2,Beauvechain Rue des 3 Héros,50.761125,4.816978,0,stoparea:TEC:Bbea3he,,1,,
TEC:Bbeaap11,Beauvechain Aérodrome P1,50.753741,4.78376,0,stoparea:TEC:Bbeaap1,,1,,
TEC:Bbeaap12,Beauvechain Aérodrome P1,50.753993,4.783677,0,stoparea:TEC:Bbeaap1,,1,,
TEC:Bbeaap51,Beauvechain Aérodrome P5,50.772144,4.780931,0,stoparea:TEC:Bbeaap5,,1,,
TEC:Bbeaap52,Beauvechain Aérodrome P5,50.772631,4.780666,0,stoparea:TEC:Bbeaap5,,1,,
TEC:Bbeabme1,La BRUYÈRE Rue de Mélin,50.761794,4.784497,0,stoparea:TEC:Bbeabme,,1,,
TEC:Bbeabme2,La BRUYÈRE Rue de Mélin,50.761838,4.78471,0,stoparea:TEC:Bbeabme,,1,,
TEC:Bbeacha1,Beauvechain Chapelle,50.775138,4.778434,0,stoparea:TEC:Bbeacha,,1,,
TEC:Bbeacha2,Beauvechain Chapelle,50.775191,4.77859,0,stoparea:TEC:Bbeacha,,1,,
TEC:Bbeaech1,Ecluse Chapelle,50.77687,4.825436,0,stoparea:TEC:Bbeaech,,1,,
TEC:Bbeaech2,Ecluse Chapelle,50.776987,4.825409,0,stoparea:TEC:Bbeaech,,1,,
TEC:Bbeaegl1,La BRUYÈRE Eglise,50.763762,4.787165,0,stoparea:TEC:Bbeaegl,,1,,
TEC:Bbeaegl2,La BRUYÈRE Eglise,50.763887,4.787464,0,stoparea:TEC:Bbeaegl,,1,,
TEC:Bbeagae1,Ecluse Rue de Gaet,50.772811,4.831195,0,stoparea:TEC:Bbeagae,,1,,
TEC:Bbeagae2,Ecluse Rue de Gaet,50.772855,4.831352,0,stoparea:TEC:Bbeagae,,1,,
TEC:Bbealbu3,Beauvechain Les Burettes,50.776391,4.792595,0,stoparea:TEC:Bbealbu,,1,,
TEC:Bbealbu4,Beauvechain Les Burettes,50.776508,4.792567,0,stoparea:TEC:Bbealbu,,1,,
TEC:Bbealon3,Beauvechain Rue Longue,50.770411,4.802748,0,stoparea:TEC:Bbealon,,1,,
TEC:Bbealon4,Beauvechain Rue Longue,50.770392,4.803074,0,stoparea:TEC:Bbealon,,1,,
TEC:Bbealou1,Beauvechain Rue de Louvain,50.780664,4.791839,0,stoparea:TEC:Bbealou,,1,,
TEC:Bbealou2,Beauvechain Rue de Louvain,50.780827,4.791557,0,stoparea:TEC:Bbealou,,1,,
TEC:Bbeamon1,Beauvechain Monument,50.780595,4.775688,0,stoparea:TEC:Bbeamon,,1,,
TEC:Bbeamon2,Beauvechain Monument,50.780703,4.77566,0,stoparea:TEC:Bbeamon,,1,,
TEC:Bbeaneu3,Beauvechain Rue Neuve,50.758664,4.782372,0,stoparea:TEC:Bbeaneu,,1,,
TEC:Bbeaneu4,Beauvechain Rue Neuve,50.758457,4.782356,0,stoparea:TEC:Bbeaneu,,1,,
TEC:Bbeapim1,Beauvechain Rue de Pymont,50.779165,4.781219,0,stoparea:TEC:Bbeapim,,1,,
TEC:Bbeapim2,Beauvechain Rue de Pymont,50.779237,4.781107,0,stoparea:TEC:Bbeapim,,1,,
TEC:Bbeardu1,Beauvechain Rue Duchêne,50.768683,4.796182,0,stoparea:TEC:Bbeardu,,1,,
TEC:Bbeardu2,Beauvechain Rue Duchêne,50.768574,4.796238,0,stoparea:TEC:Bbeardu,,1,,
TEC:Bbearwa1,Beauvechain Rue de Wahenge,50.767081,4.791561,0,stoparea:TEC:Bbearwa,,1,,
TEC:Bbearwa2,Beauvechain Rue de Wahenge,50.766928,4.791531,0,stoparea:TEC:Bbearwa,,1,,
TEC:Bbeascl1,Beauvechain Sclimpré,50.763991,4.812639,0,stoparea:TEC:Bbeascl,,1,,
TEC:Bbeascl2,Beauvechain Sclimpré,50.763884,4.812638,0,stoparea:TEC:Bbeascl,,1,,
TEC:Bbeasta1,Beauvechain Rue de la Station,50.779011,4.771123,0,stoparea:TEC:Bbeasta,,1,,
TEC:Bbeasta2,Beauvechain Rue de la Station,50.77919,4.771209,0,stoparea:TEC:Bbeasta,,1,,
TEC:Bbeubos1,Beuzet Route de Bossière,50.532667,4.74104,0,stoparea:TEC:Bbeubos,,1,,
TEC:Bbeubos2,Beuzet Route de Bossière,50.532541,4.741053,0,stoparea:TEC:Bbeubos,,1,,
TEC:Bbgeegl1,Bierges Eglise,50.711352,4.589936,0,stoparea:TEC:Bbgeegl,,1,,
TEC:Bbgeegl2,Bierges Eglise,50.711308,4.589157,0,stoparea:TEC:Bbgeegl,,1,,
TEC:Bbgelre1,Bierges La Réserve,50.701996,4.615613,0,stoparea:TEC:Bbgelre,,1,,
TEC:Bbgelre2,Bierges La Réserve,50.701942,4.615386,0,stoparea:TEC:Bbgelre,,1,,
TEC:Bbgepau1,Bierges Pont Autoroute,50.712761,4.600194,0,stoparea:TEC:Bbgepau,,1,,
TEC:Bbgepau2,Bierges Pont Autoroute,50.712564,4.599768,0,stoparea:TEC:Bbgepau,,1,,
TEC:Bbgerlr1,Bierges Rue de La Roche,50.71358,4.580785,0,stoparea:TEC:Bbgerlr,,1,,
TEC:Bbgerlr2,Bierges Rue de La Roche,50.713463,4.58104,0,stoparea:TEC:Bbgerlr,,1,,
TEC:Bbgever1,Bierges Verseau,50.722434,4.581661,0,stoparea:TEC:Bbgever,,1,,
TEC:Bbgever2,Bierges Verseau,50.7222,4.58173,0,stoparea:TEC:Bbgever,,1,,
TEC:Bbgevil1,Bierges Village,50.708807,4.594992,0,stoparea:TEC:Bbgevil,,1,,
TEC:Bbgevil2,Bierges Village,50.708288,4.593801,0,stoparea:TEC:Bbgevil,,1,,
TEC:Bbgewal1,Bierges Walibi,50.704857,4.587399,0,stoparea:TEC:Bbgewal,,1,,
TEC:Bbgewal2,Bierges Walibi,50.704947,4.587301,0,stoparea:TEC:Bbgewal,,1,,
TEC:Bbghcar1,Bierghes Carrière,50.691546,4.10251,0,stoparea:TEC:Bbghcar,,1,,
TEC:Bbghcar2,Bierghes Carrière,50.69169,4.102509,0,stoparea:TEC:Bbghcar,,1,,
TEC:Bbghepi1,Bierghes Epine,50.700404,4.137948,0,stoparea:TEC:Bbghepi,,1,,
TEC:Bbghepi2,Bierghes Epine,50.700711,4.138541,0,stoparea:TEC:Bbghepi,,1,,
TEC:Bbghgli1,Bierghes Garage Limbourg,50.694009,4.114399,0,stoparea:TEC:Bbghgli,,1,,
TEC:Bbghgli2,Bierghes Garage Limbourg,50.694134,4.1143,0,stoparea:TEC:Bbghgli,,1,,
TEC:Bbghpln1,Bierghes Place Léopold Nuttinck,50.696826,4.120131,0,stoparea:TEC:Bbghpln,,1,,
TEC:Bbghsar1,Bierghes Rue du Sartiau,50.697922,4.128759,0,stoparea:TEC:Bbghsar,,1,,
TEC:Bbghsar2,Bierghes Rue du Sartiau,50.698057,4.128674,0,stoparea:TEC:Bbghsar,,1,,
TEC:Bbghsta1,Bierghes Rue de la Station,50.695685,4.120562,0,stoparea:TEC:Bbghsta,,1,,
TEC:Bbghsta2,Bierghes Rue de la Station,50.695765,4.120278,0,stoparea:TEC:Bbghsta,,1,,
TEC:Bbghsta3,Bierghes Rue de la Station,50.694444,4.120667,0,stoparea:TEC:Bbghsta,,1,,
TEC:Bbghsta4,Bierghes Rue de la Station,50.694651,4.120609,0,stoparea:TEC:Bbghsta,,1,,
TEC:Bbgncnd1,Boignee Chapelle N.D. de Bon Secours,50.499207,4.597836,0,stoparea:TEC:Bbgncnd,,1,,
TEC:Bbgncnd2,Boignee Chapelle N.D. de Bon Secours,50.499117,4.59792,0,stoparea:TEC:Bbgncnd,,1,,
TEC:Bbgnpla1,Boignee Place,50.502317,4.607169,0,stoparea:TEC:Bbgnpla,,1,,
TEC:Bbgnton1,Boignee Route de Tongrinne,50.503341,4.615899,0,stoparea:TEC:Bbgnton,,1,,
TEC:Bbgnvel1,Boignee Route de Velaine,50.496991,4.590707,0,stoparea:TEC:Bbgnvel,,1,,
TEC:Bbgnvel2,Boignee Route de Velaine,50.496531,4.59141,0,stoparea:TEC:Bbgnvel,,1,,
TEC:Bbiecim1,Biez Cimetière,50.72993,4.707742,0,stoparea:TEC:Bbiecim,,1,,
TEC:Bbiecim2,Biez Cimetière,50.729515,4.708249,0,stoparea:TEC:Bbiecim,,1,,
TEC:Bbiecoc1,Biez Cocrou,50.737523,4.71794,0,stoparea:TEC:Bbiecoc,,1,,
TEC:Bbiecoc2,Biez Cocrou,50.737575,4.718607,0,stoparea:TEC:Bbiecoc,,1,,
TEC:Bbiefon1,Biez Rue du Fond,50.738926,4.723773,0,stoparea:TEC:Bbiefon,,1,,
TEC:Bbiefon2,Biez Rue du Fond,50.738719,4.7238,0,stoparea:TEC:Bbiefon,,1,,
TEC:Bbiehec1,Heze Ecoles,50.719436,4.720695,0,stoparea:TEC:Bbiehec,,1,,
TEC:Bbiehec2,Heze Ecoles,50.719383,4.720539,0,stoparea:TEC:Bbiehec,,1,,
TEC:Bbiehev1,Heze Entrée Village,50.723215,4.713571,0,stoparea:TEC:Bbiehev,,1,,
TEC:Bbiehev2,Heze Entrée Village,50.723261,4.713317,0,stoparea:TEC:Bbiehev,,1,,
TEC:Bbiehpo1,Heze Les Pommiers,50.718283,4.724453,0,stoparea:TEC:Bbiehpo,,1,,
TEC:Bbiehpo2,Heze Les Pommiers,50.71813,4.724622,0,stoparea:TEC:Bbiehpo,,1,,
TEC:Bbiehss1,Heze Chapelle du Saint-Sang,50.718772,4.729257,0,stoparea:TEC:Bbiehss,,1,,
TEC:Bbiehss2,Heze Chapelle du Saint-Sang,50.718664,4.729257,0,stoparea:TEC:Bbiehss,,1,,
TEC:Bbiemor1,Biez Route de Morsaint,50.732559,4.703257,0,stoparea:TEC:Bbiemor,,1,,
TEC:Bbiemor2,Biez Route de Morsaint,50.732613,4.703101,0,stoparea:TEC:Bbiemor,,1,,
TEC:Bbiemse1,Biez Morsaint St-Eloy,50.723013,4.693176,0,stoparea:TEC:Bbiemse,,1,,
TEC:Bbiemse2,Biez Morsaint St-Eloy,50.722905,4.693204,0,stoparea:TEC:Bbiemse,,1,,
TEC:Bbiepon1,Biez Pont,50.723433,4.697399,0,stoparea:TEC:Bbiepon,,1,,
TEC:Bbiepre1,Biez Préventorium,50.726613,4.710565,0,stoparea:TEC:Bbiepre,,1,,
TEC:Bbiepre2,Biez Préventorium,50.726587,4.710395,0,stoparea:TEC:Bbiepre,,1,,
TEC:Bbiesbi1,Biez Sart-Biez,50.732338,4.73184,0,stoparea:TEC:Bbiesbi,,1,,
TEC:Bbiesbi2,Biez Sart-Biez,50.732258,4.731726,0,stoparea:TEC:Bbiesbi,,1,,
TEC:Bblaaca1,Alleud Académie,50.682282,4.366104,0,stoparea:TEC:Bblaaca,,1,,
TEC:Bblaadm1,Alleud Administration Communale,50.668931,4.385314,0,stoparea:TEC:Bblaadm,,1,,
TEC:Bblaadm2,Alleud Administration Communale,50.668877,4.385215,0,stoparea:TEC:Bblaadm,,1,,
TEC:Bblaall1,Alleud Rue des Alliés,50.681041,4.377197,0,stoparea:TEC:Bblaall,,1,,
TEC:Bblaall2,Alleud Rue des Alliés,50.68096,4.377494,0,stoparea:TEC:Bblaall,,1,,
TEC:Bblaang1,Alleud Bd d'Angleterre -  P. Alliance,50.664994,4.379047,0,stoparea:TEC:Bblaang,,1,,
TEC:Bblaang2,Alleud Bd d'Angleterre -  P. Alliance,50.665138,4.378849,0,stoparea:TEC:Bblaang,,1,,
TEC:Bblaast1,Alleud Ancienne Station,50.684979,4.376589,0,stoparea:TEC:Bblaast,,1,,
TEC:Bblaast2,Alleud Ancienne Station,50.684979,4.376759,0,stoparea:TEC:Bblaast,,1,,
TEC:Bblaast3,Alleud Ancienne Station,50.684646,4.376533,0,stoparea:TEC:Bblaast,,1,,
TEC:Bblabar1,Alleud Barrière,50.669677,4.386913,0,stoparea:TEC:Bblabar,,1,,
TEC:Bblabfo1,Alleud Bonne Fosse,50.682702,4.393923,0,stoparea:TEC:Bblabfo,,1,,
TEC:Bblabfo2,Alleud Bonne Fosse,50.682387,4.394106,0,stoparea:TEC:Bblabfo,,1,,
TEC:Bblabos1,Alleud Bosquet,50.695971,4.343103,0,stoparea:TEC:Bblabos,,1,,
TEC:Bblabos2,Alleud Bosquet,50.695854,4.343131,0,stoparea:TEC:Bblabos,,1,,
TEC:Bblacar1,Alleud Carron,50.695017,4.337725,0,stoparea:TEC:Bblacar,,1,,
TEC:Bblacar2,Alleud Carron,50.694972,4.338136,0,stoparea:TEC:Bblacar,,1,,
TEC:Bblaccm1,Alleud Collège - Gare AB,50.687153,4.386807,0,stoparea:TEC:Bblaccm,,1,,
TEC:Bblacco1,Alleud Côté du Collège,50.686343,4.394264,0,stoparea:TEC:Bblacco,,1,,
TEC:Bblacco2,Alleud Côté du Collège,50.686181,4.392665,0,stoparea:TEC:Bblacco,,1,,
TEC:Bblacea1,Alleud Château d'Eau,50.711337,4.354167,0,stoparea:TEC:Bblacea,,1,,
TEC:Bblacea2,Alleud Château d'Eau,50.711085,4.354125,0,stoparea:TEC:Bblacea,,1,,
TEC:Bblacha1,Alleud La Chapelle,50.697035,4.365268,0,stoparea:TEC:Bblacha,,1,,
TEC:Bblacha2,Alleud La Chapelle,50.696846,4.36558,0,stoparea:TEC:Bblacha,,1,,
TEC:Bblacim2,Alleud Cimetière,50.687164,4.373222,0,stoparea:TEC:Bblacim,,1,,
TEC:Bblaece1,Ermite Centre,50.714321,4.352113,0,stoparea:TEC:Bblaece,,1,,
TEC:Bblaece2,Ermite Centre,50.714258,4.351943,0,stoparea:TEC:Bblaece,,1,,
TEC:Bblaegl1,Ermite Eglise,50.707408,4.356886,0,stoparea:TEC:Bblaegl,,1,,
TEC:Bblaegl2,Ermite Eglise,50.70748,4.356631,0,stoparea:TEC:Bblaegl,,1,,
TEC:Bblaelo1,Alleud Rue Jean Volders,50.689465,4.368608,0,stoparea:TEC:Bblaelo,,1,,
TEC:Bblaeur1,Alleud Boulevard de l'Europe,50.681984,4.385192,0,stoparea:TEC:Bblaeur,,1,,
TEC:Bblafab1,Alleud Fabrique,50.675719,4.362525,0,stoparea:TEC:Bblafab,,1,,
TEC:Bblafab2,Alleud Fabrique,50.675639,4.362638,0,stoparea:TEC:Bblafab,,1,,
TEC:Bblafra1,Alleud Rue de la Fraternité,50.673894,4.383732,0,stoparea:TEC:Bblafra,,1,,
TEC:Bblafra2,Alleud Rue de la Fraternité,50.673084,4.38458,0,stoparea:TEC:Bblafra,,1,,
TEC:Bblafra3,Alleud Rue de la Fraternité,50.67357,4.384453,0,stoparea:TEC:Bblafra,,1,,
TEC:Bblafrn1,Alleud Bd de France -  P. Alliance,50.666981,4.378071,0,stoparea:TEC:Bblafrn,,1,,
TEC:Bblafrn2,Alleud Bd de France -  P. Alliance,50.667053,4.378368,0,stoparea:TEC:Bblafrn,,1,,
TEC:Bblagar1,Alleud Gare,50.684538,4.3755,0,stoparea:TEC:Bblagar,,1,,
TEC:Bblagar2,Alleud Gare,50.684305,4.375457,0,stoparea:TEC:Bblagar,,1,,
TEC:Bblagar3,Alleud Gare,50.684089,4.375429,0,stoparea:TEC:Bblagar,,1,,
TEC:Bblagar4,Alleud Gare,50.683873,4.375386,0,stoparea:TEC:Bblagar,,1,,
TEC:Bblagar5,Alleud Gare,50.683639,4.375358,0,stoparea:TEC:Bblagar,,1,,
TEC:Bblagar6,Alleud Gare,50.683433,4.37533,0,stoparea:TEC:Bblagar,,1,,
TEC:Bblagar7,Alleud Gare,50.68319,4.375287,0,stoparea:TEC:Bblagar,,1,,
TEC:Bblagar8,Alleud Gare,50.682947,4.375231,0,stoparea:TEC:Bblagar,,1,,
TEC:Bblagar9,Alleud Gare,50.682714,4.375188,0,stoparea:TEC:Bblagar,,1,,
TEC:Bblagard,Alleud Gare,50.684503,4.375188,0,stoparea:TEC:Bblagar,,1,,
TEC:Bblager1,Alleud Avenue Germinal,50.67231,4.390281,0,stoparea:TEC:Bblager,,1,,
TEC:Bblague1,Alleud Rue au Gué,50.679792,4.370009,0,stoparea:TEC:Bblague,,1,,
TEC:Bblague2,Alleud Rue au Gué,50.680152,4.370122,0,stoparea:TEC:Bblague,,1,,
TEC:Bblahop1,Alleud Hôpital,50.683235,4.367448,0,stoparea:TEC:Bblahop,,1,,
TEC:Bblajap1,Alleud Av. du Japon -  P. Alliance,50.667987,4.384522,0,stoparea:TEC:Bblajap,,1,,
TEC:Bblaljo1,Alleud Avenue L. Jourez,50.685276,4.370575,0,stoparea:TEC:Bblaljo,,1,,
TEC:Bblamer1,Alleud Merbraine,50.683314,4.389452,0,stoparea:TEC:Bblamer,,1,,
TEC:Bblamer2,Alleud Merbraine,50.683251,4.389126,0,stoparea:TEC:Bblamer,,1,,
TEC:Bblamp5,Alleud Mont-Saint-Pont,50.700181,4.363824,0,stoparea:TEC:Bblamp,,1,,
TEC:Bblamsj1,Alleud Route de Mont-Saint-Jean,50.686389,4.385873,0,stoparea:TEC:Bblamsj,,1,,
TEC:Bblamsj2,Alleud Route de Mont-Saint-Jean,50.685859,4.383141,0,stoparea:TEC:Bblamsj,,1,,
TEC:Bblamsj3,Alleud Route de Mont-Saint-Jean,50.685283,4.386368,0,stoparea:TEC:Bblamsj,,1,,
TEC:Bblamsp1,Alleud Mont-Saint-Pont,50.699246,4.360738,0,stoparea:TEC:Bblamsp,,1,,
TEC:Bblamsp2,Alleud Mont-Saint-Pont,50.698931,4.362451,0,stoparea:TEC:Bblamsp,,1,,
TEC:Bblamsp3,Alleud Mont-Saint-Pont,50.698563,4.362989,0,stoparea:TEC:Bblamsp,,1,,
TEC:Bblamsp4,Alleud Mont-Saint-Pont,50.700073,4.363923,0,stoparea:TEC:Bblamsp,,1,,
TEC:Bblaniv1,Alleud Route de Nivelles,50.682017,4.399738,0,stoparea:TEC:Bblaniv,,1,,
TEC:Bblaniv2,Alleud Route de Nivelles,50.681927,4.399922,0,stoparea:TEC:Bblaniv,,1,,
TEC:Bblapet1,Alleud Avenue des Pétunias,50.672877,4.387282,0,stoparea:TEC:Bblapet,,1,,
TEC:Bblaphi1,Alleud Philippe,50.698284,4.356704,0,stoparea:TEC:Bblaphi,,1,,
TEC:Bblaphi2,Alleud Philippe,50.69778,4.354978,0,stoparea:TEC:Bblaphi,,1,,
TEC:Bblapin1,Alleud Drève des Pins,50.729009,4.342151,0,stoparea:TEC:Bblapin,,1,,
TEC:Bblapin2,Alleud Drève des Pins,50.728802,4.342066,0,stoparea:TEC:Bblapin,,1,,
TEC:Bblapje1,Alleud Rue de Petit Jean,50.681761,4.370901,0,stoparea:TEC:Bblapje,,1,,
TEC:Bblapje2,Alleud Rue de Petit Jean,50.681743,4.372386,0,stoparea:TEC:Bblapje,,1,,
TEC:Bblapra1,Alleud Chemin de la Praye,50.693172,4.330154,0,stoparea:TEC:Bblapra,,1,,
TEC:Bblapra2,Alleud Chemin de la Praye,50.693055,4.330239,0,stoparea:TEC:Bblapra,,1,,
TEC:Bblapri1,Alleud Avenue du Prieuré,50.717674,4.349832,0,stoparea:TEC:Bblapri,,1,,
TEC:Bblapri2,Alleud Avenue du Prieuré,50.717099,4.349988,0,stoparea:TEC:Bblapri,,1,,
TEC:Bblaqsj1,Alleud Quartier Saint Jacques,50.678992,4.366316,0,stoparea:TEC:Bblaqsj,,1,,
TEC:Bblaqsj2,Alleud Quartier Saint Jacques,50.679145,4.366543,0,stoparea:TEC:Bblaqsj,,1,,
TEC:Bblarbe1,Alleud Riva BELLA,50.684098,4.380466,0,stoparea:TEC:Bblarbe,,1,,
TEC:Bblarbe2,Alleud Riva BELLA,50.684071,4.380594,0,stoparea:TEC:Bblarbe,,1,,
TEC:Bblasmo1,Alleud Sart-Moulin,50.696997,4.348863,0,stoparea:TEC:Bblasmo,,1,,
TEC:Bblasmo2,Alleud Sart-Moulin,50.696952,4.349189,0,stoparea:TEC:Bblasmo,,1,,
TEC:Bblasol1,Alleud Rue de la Solidarité,50.670927,4.385754,0,stoparea:TEC:Bblasol,,1,,
TEC:Bblasse1,Alleud Rue Saint Sébastien,50.67838,4.379588,0,stoparea:TEC:Bblasse,,1,,
TEC:Bblasse2,Alleud Rue Saint Sébastien,50.677975,4.380154,0,stoparea:TEC:Bblasse,,1,,
TEC:Bblasta1,Alleud Stade,50.677966,4.385898,0,stoparea:TEC:Bblasta,,1,,
TEC:Bblatet1,Alleud Timpe et Tard,50.672564,4.356951,0,stoparea:TEC:Bblatet,,1,,
TEC:Bblatet2,Alleud Timpe et Tard,50.672474,4.35705,0,stoparea:TEC:Bblatet,,1,,
TEC:Bblavba1,Alleud Vallée Bailly,50.685662,4.37816,0,stoparea:TEC:Bblavba,,1,,
TEC:Bblavba2,Alleud Vallée Bailly,50.6855,4.378203,0,stoparea:TEC:Bblavba,,1,,
TEC:Bblavhu2,Alleud Avenue Victor Hugo,50.68645,4.398807,0,stoparea:TEC:Bblavhu,,1,,
TEC:Bblavol2,Alleud Rue Jean Volders,50.690975,4.370179,0,stoparea:TEC:Bblavol,,1,,
TEC:Bbldass1,Blanden Assemblée,50.82074,4.703005,0,stoparea:TEC:Bbldass,,1,,
TEC:Bbldass2,Blanden Assemblée,50.820757,4.703233,0,stoparea:TEC:Bbldass,,1,,
TEC:Bbldgar1,Blanden Oud Station,50.827236,4.701107,0,stoparea:TEC:Bbldgar,,1,,
TEC:Bbldgar2,Blanden Oud Station,50.827244,4.701334,0,stoparea:TEC:Bbldgar,,1,,
TEC:Bbldmun1,Blanden Munitiedepot,50.815882,4.704361,0,stoparea:TEC:Bbldmun,,1,,
TEC:Bbldmun2,Blanden Munitiedepot,50.815899,4.704589,0,stoparea:TEC:Bbldmun,,1,,
TEC:Bbldvaa1,Blanden Vaalbeek,50.831509,4.699902,0,stoparea:TEC:Bbldvaa,,1,,
TEC:Bbldvaa2,Blanden Vaalbeek,50.831527,4.700115,0,stoparea:TEC:Bbldvaa,,1,,
TEC:Bblmcel1,Blanmont Cabine Electrique,50.620988,4.639226,0,stoparea:TEC:Bblmcel,,1,,
TEC:Bblmcel2,Blanmont Cabine Electrique,50.620899,4.639141,0,stoparea:TEC:Bblmcel,,1,,
TEC:Bblmpro1,Blanmont Route Provinciale,50.619077,4.645475,0,stoparea:TEC:Bblmpro,,1,,
TEC:Bblmpro2,Blanmont Route Provinciale,50.618969,4.645446,0,stoparea:TEC:Bblmpro,,1,,
TEC:Bblmwm1,Blanmont Av. Werner Marchand,50.614595,4.647526,0,stoparea:TEC:Bblmwm,,1,,
TEC:Bblmwm2,Blanmont Av. Werner Marchand,50.614523,4.647398,0,stoparea:TEC:Bblmwm,,1,,
TEC:Bbonbcr1,Bonlez Chemin Bernard Croix,50.7054,4.690507,0,stoparea:TEC:Bbonbcr,,1,,
TEC:Bbonbcr2,Bonlez Chemin Bernard Croix,50.705337,4.690648,0,stoparea:TEC:Bbonbcr,,1,,
TEC:Bboncfv1,Bonlez Chemin du Fort des Voiles,50.711149,4.698687,0,stoparea:TEC:Bboncfv,,1,,
TEC:Bboncgs1,Biez Chemin du Grand Sart,50.716639,4.699476,0,stoparea:TEC:Bboncgs,,1,,
TEC:Bboncha1,Bonlez Château,50.709037,4.691876,0,stoparea:TEC:Bboncha,,1,,
TEC:Bboncha2,Bonlez Château,50.709576,4.692163,0,stoparea:TEC:Bboncha,,1,,
TEC:Bbonegl1,Bonlez Eglise,50.70169,4.689419,0,stoparea:TEC:Bbonegl,,1,,
TEC:Bbonegl2,Bonlez Eglise,50.70169,4.689589,0,stoparea:TEC:Bbonegl,,1,,
TEC:Bboneta1,Bonlez Etangs,50.716978,4.694083,0,stoparea:TEC:Bboneta,,1,,
TEC:Bboneta2,Bonlez Etangs,50.717149,4.69424,0,stoparea:TEC:Bboneta,,1,,
TEC:Bborbif1,Bornival Bifurcation,50.609014,4.276847,0,stoparea:TEC:Bborbif,,1,,
TEC:Bborbif2,Bornival Bifurcation,50.608772,4.277059,0,stoparea:TEC:Bborbif,,1,,
TEC:Bborche1,Bornival Le Chêne,50.608298,4.281002,0,stoparea:TEC:Bborche,,1,,
TEC:Bborche2,Bornival Le Chêne,50.608155,4.281313,0,stoparea:TEC:Bborche,,1,,
TEC:Bborcro1,Bornival Croiseau,50.613574,4.258131,0,stoparea:TEC:Bborcro,,1,,
TEC:Bborcro2,Bornival Croiseau,50.613575,4.25912,0,stoparea:TEC:Bborcro,,1,,
TEC:Bborppa1,Bornival Petit Paradis,50.61218,4.266696,0,stoparea:TEC:Bborppa,,1,,
TEC:Bborppa2,Bornival Petit Paradis,50.612179,4.266032,0,stoparea:TEC:Bborppa,,1,,
TEC:Bbosdra1,Bost Dragonder,50.796682,4.936652,0,stoparea:TEC:Bbosdra,,1,,
TEC:Bbosdra2,Bost Dragonder,50.796682,4.93651,0,stoparea:TEC:Bbosdra,,1,,
TEC:Bboseco1,Bost School,50.788992,4.942756,0,stoparea:TEC:Bboseco,,1,,
TEC:Bboseco2,Bost School,50.788298,4.943117,0,stoparea:TEC:Bboseco,,1,,
TEC:Bbosgar1,Bost Station,50.791619,4.94059,0,stoparea:TEC:Bbosgar,,1,,
TEC:Bbosgar2,Bost Station,50.791647,4.940349,0,stoparea:TEC:Bbosgar,,1,,
TEC:Bboueta1,Bousval Etang,50.619282,4.518608,0,stoparea:TEC:Bboueta,,1,,
TEC:Bboueta2,Bousval Etang,50.61913,4.518565,0,stoparea:TEC:Bboueta,,1,,
TEC:Bboufsm1,Bousval Ferme Saint-Martin,50.614906,4.502952,0,stoparea:TEC:Bboufsm,,1,,
TEC:Bboufsm2,Bousval Ferme Saint-Martin,50.614787,4.503984,0,stoparea:TEC:Bboufsm,,1,,
TEC:Bbougar1,Bousval Gare,50.616847,4.511069,0,stoparea:TEC:Bbougar,,1,,
TEC:Bbougar2,Bousval Gare,50.616783,4.511309,0,stoparea:TEC:Bbougar,,1,,
TEC:Bbougbl1,Bousval Gare Basse Laloux,50.622123,4.525598,0,stoparea:TEC:Bbougbl,,1,,
TEC:Bbougbl2,Bousval Gare Basse Laloux,50.622033,4.525739,0,stoparea:TEC:Bbougbl,,1,,
TEC:Bbounci1,Noirhat Cité,50.626927,4.53001,0,stoparea:TEC:Bbounci,,1,,
TEC:Bbounci2,Noirhat Cité,50.627752,4.531157,0,stoparea:TEC:Bbounci,,1,,
TEC:Bboupde1,Bousval Papeteries Debroux,50.631621,4.535609,0,stoparea:TEC:Bboupde,,1,,
TEC:Bboupde2,Bousval Papeteries Debroux,50.631225,4.535579,0,stoparea:TEC:Bboupde,,1,,
TEC:Bbourel1,Bousval Au Relais,50.614594,4.491606,0,stoparea:TEC:Bbourel,,1,,
TEC:Bbourel2,Bousval Au Relais,50.61446,4.491111,0,stoparea:TEC:Bbourel,,1,,
TEC:Bboutry1,Bousval Chemin de Thy,50.614465,4.486406,0,stoparea:TEC:Bboutry,,1,,
TEC:Bboutry2,Bousval Chemin de Thy,50.614348,4.48697,0,stoparea:TEC:Bboutry,,1,,
TEC:Bbrlmez1,Beersel Mezenhof,50.768299,4.328407,0,stoparea:TEC:Bbrlmez,,1,,
TEC:Bbrlmez2,Beersel Mezenhof,50.768317,4.328209,0,stoparea:TEC:Bbrlmez,,1,,
TEC:Bbrlpar1,Beersel Parasol,50.761845,4.330326,0,stoparea:TEC:Bbrlpar,,1,,
TEC:Bbrlpar2,Beersel Parasol,50.761827,4.330128,0,stoparea:TEC:Bbrlpar,,1,,
TEC:Bbrlrph1,Beersel Rode Poorthoeve,50.758402,4.331377,0,stoparea:TEC:Bbrlrph,,1,,
TEC:Bbrlrph2,Beersel Rode Poorthoeve,50.758474,4.331151,0,stoparea:TEC:Bbrlrph,,1,,
TEC:Bbrlvil1,Beersel De Villa's,50.764919,4.329388,0,stoparea:TEC:Bbrlvil,,1,,
TEC:Bbrlvil2,Beersel De Villa's,50.764613,4.329275,0,stoparea:TEC:Bbrlvil,,1,,
TEC:Bbrycar1,Brye Carrefour,50.521711,4.56214,0,stoparea:TEC:Bbrycar,,1,,
TEC:Bbrycar2,Brye Carrefour,50.521864,4.562127,0,stoparea:TEC:Bbrycar,,1,,
TEC:Bbryfon1,Brye Les Fontaines,50.521015,4.553451,0,stoparea:TEC:Bbryfon,,1,,
TEC:Bbryfon2,Brye Les Fontaines,50.520953,4.553296,0,stoparea:TEC:Bbryfon,,1,,
TEC:Bbryvil1,Brye Village,50.523551,4.558594,0,stoparea:TEC:Bbryvil,,1,,
TEC:Bbryvil2,Brye Village,50.523623,4.558721,0,stoparea:TEC:Bbryvil,,1,,
TEC:Bbsgbos1,Bossut-Gottechain Bossut,50.757917,4.700744,0,stoparea:TEC:Bbsgbos,,1,,
TEC:Bbsgbos2,Bossut-Gottechain Bossut,50.75781,4.700503,0,stoparea:TEC:Bbsgbos,,1,,
TEC:Bbsgbos3,Bossut-Gottechain Bossut,50.757531,4.700699,0,stoparea:TEC:Bbsgbos,,1,,
TEC:Bbsgfva1,Bossut-Gottechain Ferme Vandenberg,50.753758,4.696605,0,stoparea:TEC:Bbsgfva,,1,,
TEC:Bbsgfva2,Bossut-Gottechain Ferme Vandenberg,50.753784,4.696761,0,stoparea:TEC:Bbsgfva,,1,,
TEC:Bbsggot1,Bossut-Gottechain Gottechain,50.761748,4.703649,0,stoparea:TEC:Bbsggot,,1,,
TEC:Bbsggot2,Bossut-Gottechain Gottechain,50.761675,4.703932,0,stoparea:TEC:Bbsggot,,1,,
TEC:Bbsgrve1,Bossut-Gottechain rue Verbanis,50.759721,4.695386,0,stoparea:TEC:Bbsgrve,,1,,
TEC:Bbsgrve2,Bossut-Gottechain rue Verbanis,50.759918,4.695699,0,stoparea:TEC:Bbsgrve,,1,,
TEC:Bbsiabb1,Ophain - BOIS-SEIGNEUR-ISAAC Abbaye,50.644939,4.324,0,stoparea:TEC:Bbsiabb,,1,,
TEC:Bbsiabb2,Ophain - BOIS-SEIGNEUR-ISAAC Abbaye,50.645281,4.324707,0,stoparea:TEC:Bbsiabb,,1,,
TEC:Bbsibou1,Ophain Bouvrée,50.668769,4.351902,0,stoparea:TEC:Bbsibou,,1,,
TEC:Bbsibou2,Ophain Bouvrée,50.668482,4.351746,0,stoparea:TEC:Bbsibou,,1,,
TEC:Bbsicas1,Ophain - BOIS-SEIGNEUR-ISAAC Rue du Castor,50.652115,4.331587,0,stoparea:TEC:Bbsicas,,1,,
TEC:Bbsicas2,Ophain - BOIS-SEIGNEUR-ISAAC Rue du Castor,50.652385,4.332082,0,stoparea:TEC:Bbsicas,,1,,
TEC:Bbsicea1,Ophain - BOIS-SEIGNEUR-ISAAC Château d'eau,50.673703,4.342026,0,stoparea:TEC:Bbsicea,,1,,
TEC:Bbsicea2,Ophain - BOIS-SEIGNEUR-ISAAC Château d'eau,50.673667,4.341587,0,stoparea:TEC:Bbsicea,,1,,
TEC:Bbsicen1,Bois-Seigneur-Isaac Centre,50.642896,4.317725,0,stoparea:TEC:Bbsicen,,1,,
TEC:Bbsicen2,Bois-Seigneur-Isaac Centre,50.642967,4.317654,0,stoparea:TEC:Bbsicen,,1,,
TEC:Bbsicul1,Ophain - BOIS-SEIGNEUR-ISAAC Les Culots,50.65618,4.336548,0,stoparea:TEC:Bbsicul,,1,,
TEC:Bbsicul2,Ophain - BOIS-SEIGNEUR-ISAAC Les Culots,50.656261,4.336845,0,stoparea:TEC:Bbsicul,,1,,
TEC:Bbsifml1,Ophain - BOIS-SEIGNEUR-ISAAC Ferme du Moulin,50.634852,4.324179,0,stoparea:TEC:Bbsifml,,1,,
TEC:Bbsifml2,Ophain - BOIS-SEIGNEUR-ISAAC Ferme du Moulin,50.632991,4.324351,0,stoparea:TEC:Bbsifml,,1,,
TEC:Bbsifmo1,Ophain - BOIS-SEIGNEUR-ISAAC Ferme du Mont,50.654803,4.309058,0,stoparea:TEC:Bbsifmo,,1,,
TEC:Bbsifmo2,Ophain - BOIS-SEIGNEUR-ISAAC Ferme du Mont,50.654875,4.309227,0,stoparea:TEC:Bbsifmo,,1,,
TEC:Bbsigaz1,Ophain - BOIS-SEIGNEUR-ISAAC Les Gazons,50.661747,4.343531,0,stoparea:TEC:Bbsigaz,,1,,
TEC:Bbsigaz2,Ophain - BOIS-SEIGNEUR-ISAAC Les Gazons,50.66163,4.343602,0,stoparea:TEC:Bbsigaz,,1,,
TEC:Bbsihau1,Ophain - BOIS-SEIGNEUR-ISAAC Hautmont,50.671346,4.335944,0,stoparea:TEC:Bbsihau,,1,,
TEC:Bbsihau2,Ophain - BOIS-SEIGNEUR-ISAAC Hautmont,50.671337,4.335717,0,stoparea:TEC:Bbsihau,,1,,
TEC:Bbsimpl1,Ophain - BOIS-SEIGNEUR-ISAAC Maison Plasman,50.639786,4.321022,0,stoparea:TEC:Bbsimpl,,1,,
TEC:Bbsimpl2,Ophain - BOIS-SEIGNEUR-ISAAC Maison Plasman,50.640029,4.321065,0,stoparea:TEC:Bbsimpl,,1,,
TEC:Bbsipos1,Ophain - BOIS-SEIGNEUR-ISAAC Poste,50.645044,4.316959,0,stoparea:TEC:Bbsipos,,1,,
TEC:Bbsipos2,Ophain - BOIS-SEIGNEUR-ISAAC Poste,50.64508,4.317157,0,stoparea:TEC:Bbsipos,,1,,
TEC:Bbsivi11,Ophain Village n°1,50.674459,4.345194,0,stoparea:TEC:Bbsivi1,,1,,
TEC:Bbsivil1,Ophain Village,50.665379,4.347292,0,stoparea:TEC:Bbsivil,,1,,
TEC:Bbsivil2,Ophain Village,50.665667,4.347688,0,stoparea:TEC:Bbsivil,,1,,
TEC:Bbsivil3,Ophain Village,50.665964,4.34814,0,stoparea:TEC:Bbsivil,,1,,
TEC:Bbst4br1,Baisy-Thy Quatre Bras,50.570909,4.454294,0,stoparea:TEC:Bbst4br,,1,,
TEC:Bbst4br2,Baisy-Thy Quatre Bras,50.571008,4.454407,0,stoparea:TEC:Bbst4br,,1,,
TEC:Bbst4br3,Baisy-Thy Quatre Bras,50.571801,4.452362,0,stoparea:TEC:Bbst4br,,1,,
TEC:Bbst4br4,Baisy-Thy Quatre Bras,50.571585,4.452545,0,stoparea:TEC:Bbst4br,,1,,
TEC:Bbstasa1,Baisy-Thy Arbre Sainte-Anne,50.590467,4.460134,0,stoparea:TEC:Bbstasa,,1,,
TEC:Bbstasa2,Baisy-Thy Arbre Sainte-Anne,50.590566,4.46005,0,stoparea:TEC:Bbstasa,,1,,
TEC:Bbstbou1,Baisy-Thy Chemin de Bousval,50.604618,4.513151,0,stoparea:TEC:Bbstbou,,1,,
TEC:Bbstbou2,Baisy-Thy Chemin de Bousval,50.604717,4.513095,0,stoparea:TEC:Bbstbou,,1,,
TEC:Bbstbxl2,Baisy-Thy Route de Bruxelles,50.604692,4.45728,0,stoparea:TEC:Bbstbxl,,1,,
TEC:Bbstcha1,Baisy-Thy Chemin Sainte-Anne,50.589976,4.455727,0,stoparea:TEC:Bbstcha,,1,,
TEC:Bbstcha2,Baisy-Thy Chemin Sainte-Anne,50.590488,4.456039,0,stoparea:TEC:Bbstcha,,1,,
TEC:Bbstchn1,Baisy-Thy Cheniat,50.596649,4.48444,0,stoparea:TEC:Bbstchn,,1,,
TEC:Bbstchn2,Baisy-Thy Cheniat,50.59664,4.484016,0,stoparea:TEC:Bbstchn,,1,,
TEC:Bbstchv1,Baisy-Thy Chevelipont,50.597543,4.533172,0,stoparea:TEC:Bbstchv,,1,,
TEC:Bbstchv2,Baisy-Thy Chevelipont,50.597606,4.533002,0,stoparea:TEC:Bbstchv,,1,,
TEC:Bbstcoi1,Baisy-Thy Chant des Oiseaux,50.600641,4.500299,0,stoparea:TEC:Bbstcoi,,1,,
TEC:Bbstcoi2,Baisy-Thy Chant des Oiseaux,50.600651,4.499945,0,stoparea:TEC:Bbstcoi,,1,,
TEC:Bbstdpa1,Baisy-Thy Dernier Patard,50.586992,4.45527,0,stoparea:TEC:Bbstdpa,,1,,
TEC:Bbstdpa2,Baisy-Thy Dernier Patard,50.586533,4.455382,0,stoparea:TEC:Bbstdpa,,1,,
TEC:Bbstegl1,Baisy-Thy Eglise,50.593115,4.465506,0,stoparea:TEC:Bbstegl,,1,,
TEC:Bbstegl2,Baisy-Thy Eglise,50.593223,4.465436,0,stoparea:TEC:Bbstegl,,1,,
TEC:Bbstfch1,Baisy-Thy Fond Chabau,50.603536,4.508175,0,stoparea:TEC:Bbstfch,,1,,
TEC:Bbstfch2,Baisy-Thy Fond Chabau,50.603626,4.508091,0,stoparea:TEC:Bbstfch,,1,,
TEC:Bbsthpl1,Baisy-Thy Hattain Place,50.598521,4.490984,0,stoparea:TEC:Bbsthpl,,1,,
TEC:Bbsthpl2,Baisy-Thy Hattain Place,50.598602,4.490829,0,stoparea:TEC:Bbsthpl,,1,,
TEC:Bbstmco1,Baisy-Thy Maison Communale,50.595815,4.472786,0,stoparea:TEC:Bbstmco,,1,,
TEC:Bbstmco2,Baisy-Thy Maison Communale,50.596201,4.473154,0,stoparea:TEC:Bbstmco,,1,,
TEC:Bbstpan1,Baisy-Thy Le Panier,50.59714,4.457548,0,stoparea:TEC:Bbstpan,,1,,
TEC:Bbstpan2,Baisy-Thy Le Panier,50.59714,4.45793,0,stoparea:TEC:Bbstpan,,1,,
TEC:Bbstpon1,Baisy-Thy Chemin du Pontail,50.575126,4.453582,0,stoparea:TEC:Bbstpon,,1,,
TEC:Bbstpon2,Baisy-Thy Chemin du Pontail,50.575162,4.453963,0,stoparea:TEC:Bbstpon,,1,,
TEC:Bbstrpo1,Baisy-Thy Rond Point,50.596784,4.474525,0,stoparea:TEC:Bbstrpo,,1,,
TEC:Bbstrpo2,Baisy-Thy Rond Point,50.596892,4.474483,0,stoparea:TEC:Bbstrpo,,1,,
TEC:Bbststa1,Baisy-Thy Stock Américain,50.582713,4.454697,0,stoparea:TEC:Bbststa,,1,,
TEC:Bbststa2,Baisy-Thy Stock Américain,50.583063,4.454881,0,stoparea:TEC:Bbststa,,1,,
TEC:Bbsttab1,Baisy-Thy Tabaral,50.597518,4.487535,0,stoparea:TEC:Bbsttab,,1,,
TEC:Bbsttab2,Baisy-Thy Tabaral,50.597617,4.487465,0,stoparea:TEC:Bbsttab,,1,,
TEC:Bbuzcom1,Buzet Commune,50.556791,4.365714,0,stoparea:TEC:Bbuzcom,,1,,
TEC:Bbuzcom2,Buzet Commune,50.556953,4.365742,0,stoparea:TEC:Bbuzcom,,1,,
TEC:Bbuzeta1,Buzet Etang,50.553797,4.368212,0,stoparea:TEC:Bbuzeta,,1,,
TEC:Bbuzeta2,Buzet Etang,50.553869,4.368367,0,stoparea:TEC:Bbuzeta,,1,,
TEC:Bbuztai1,Buzet Taille Voie,50.561582,4.358854,0,stoparea:TEC:Bbuztai,,1,,
TEC:Bbuztai2,Buzet Taille Voie,50.561789,4.358756,0,stoparea:TEC:Bbuztai,,1,,
TEC:Bbwacol1,Basse-Wavre Collège,50.722737,4.623355,0,stoparea:TEC:Bbwacol,,1,,
TEC:Bbwacol2,Basse-Wavre Collège,50.722998,4.623059,0,stoparea:TEC:Bbwacol,,1,,
TEC:Bbxlfro1,Bruxelles Froissart,50.840222,4.382666,0,stoparea:TEC:Bbxlfro,,1,,
TEC:Bbxlmid1,Bruxelles Midi,50.836371,4.338614,0,stoparea:TEC:Bbxlmid,,1,,
TEC:Bbxlmid4,Bruxelles Midi,50.836542,4.338656,0,stoparea:TEC:Bbxlmid,,1,,
TEC:Bbxlner1,Bruxelles Nerviens,50.838891,4.385888,0,stoparea:TEC:Bbxlner,,1,,
TEC:Bbxlner2,Bruxelles Nerviens,50.838873,4.385689,0,stoparea:TEC:Bbxlner,,1,,
TEC:Bbxlple2,Bruxelles Parc Léopold,50.840069,4.379897,0,stoparea:TEC:Bbxlple,,1,,
TEC:Bbxltou1,Bruxelles Toulouse,50.842793,4.37764,0,stoparea:TEC:Bbxltou,,1,,
TEC:Bbxltrv1,Bruxelles Rue de Trêves,50.842155,4.374758,0,stoparea:TEC:Bbxltrv,,1,,
TEC:Bbxltrv2,Bruxelles Rue de Trêves,50.840834,4.374247,0,stoparea:TEC:Bbxltrv,,1,,
TEC:Bcbqa361,Clabecq Avenue des Alouettes 36,50.688978,4.236855,0,stoparea:TEC:Bcbqa36,,1,,
TEC:Bcbqa362,Clabecq Avenue des Alouettes 36,50.68905,4.236769,0,stoparea:TEC:Bcbqa36,,1,,
TEC:Bcbqcha1,Clabecq Chapelle,50.690584,4.233822,0,stoparea:TEC:Bcbqcha,,1,,
TEC:Bcbqcha2,Clabecq Chapelle,50.690395,4.234162,0,stoparea:TEC:Bcbqcha,,1,,
TEC:Bcbqcht1,Clabecq Rue du Château,50.685178,4.2242,0,stoparea:TEC:Bcbqcht,,1,,
TEC:Bcbqcht2,Clabecq Rue du Château,50.685268,4.224172,0,stoparea:TEC:Bcbqcht,,1,,
TEC:Bcbqcim1,Clabecq Cimetière,50.690836,4.226759,0,stoparea:TEC:Bcbqcim,,1,,
TEC:Bcbqcim2,Clabecq Cimetière,50.690738,4.227169,0,stoparea:TEC:Bcbqcim,,1,,
TEC:Bcbqcoi1,Clabecq Avenue Champ des Oiseaux,50.688083,4.232541,0,stoparea:TEC:Bcbqcoi,,1,,
TEC:Bcbqcoi2,Clabecq Avenue Champ des Oiseaux,50.688083,4.232385,0,stoparea:TEC:Bcbqcoi,,1,,
TEC:Bcbqegl1,Clabecq Eglise,50.689787,4.221639,0,stoparea:TEC:Bcbqegl,,1,,
TEC:Bcbqegl2,Clabecq Eglise,50.689454,4.221399,0,stoparea:TEC:Bcbqegl,,1,,
TEC:Bcbqgar1,Clabecq Gare,50.689186,4.215357,0,stoparea:TEC:Bcbqgar,,1,,
TEC:Bcbqgar2,Clabecq Gare,50.68914,4.214989,0,stoparea:TEC:Bcbqgar,,1,,
TEC:Bcbqh451,Clabecq Hameau 45,50.683544,4.225719,0,stoparea:TEC:Bcbqh45,,1,,
TEC:Bcbqh452,Clabecq Hameau 45,50.683401,4.226017,0,stoparea:TEC:Bcbqh45,,1,,
TEC:Bcbqhai1,Clabecq Rue du Hain,50.681084,4.228599,0,stoparea:TEC:Bcbqhai,,1,,
TEC:Bcbqhai2,Clabecq Rue du Hain,50.681615,4.228456,0,stoparea:TEC:Bcbqhai,,1,,
TEC:Bcbqp251,Clabecq Rue du Parc 25,50.686109,4.228188,0,stoparea:TEC:Bcbqp25,,1,,
TEC:Bcbqp252,Clabecq Rue du Parc 25,50.686226,4.228103,0,stoparea:TEC:Bcbqp25,,1,,
TEC:Bcbqpon1,Clabecq Pont,50.687988,4.22122,0,stoparea:TEC:Bcbqpon,,1,,
TEC:Bcbqpon2,Clabecq Pont,50.687611,4.221136,0,stoparea:TEC:Bcbqpon,,1,,
TEC:Bcbqrog1,Clabecq Rogissart,50.680244,4.232677,0,stoparea:TEC:Bcbqrog,,1,,
TEC:Bcbqrog2,Clabecq Rogissart,50.680046,4.232861,0,stoparea:TEC:Bcbqrog,,1,,
TEC:Bcbqtub1,Clabecq Rue de Tubize 157,50.678715,4.240293,0,stoparea:TEC:Bcbqtub,,1,,
TEC:Bcbqtub2,Clabecq Rue de Tubize 157,50.678768,4.239585,0,stoparea:TEC:Bcbqtub,,1,,
TEC:Bcbqufo1,Clabecq Usines Forges,50.688415,4.21703,0,stoparea:TEC:Bcbqufo,,1,,
TEC:Bcbqufo2,Clabecq Usines Forges,50.688074,4.217738,0,stoparea:TEC:Bcbqufo,,1,,
TEC:Bcer4br1,Ceroux Quatre Bras,50.66227,4.527472,0,stoparea:TEC:Bcer4br,,1,,
TEC:Bcer4br2,Ceroux Quatre Bras,50.660706,4.527368,0,stoparea:TEC:Bcer4br,,1,,
TEC:Bcer4br4,Ceroux Quatre Bras,50.66157,4.526663,0,stoparea:TEC:Bcer4br,,1,,
TEC:Bcercab1,Ceroux Cabine,50.660793,4.522389,0,stoparea:TEC:Bcercab,,1,,
TEC:Bcercab2,Ceroux Cabine,50.660857,4.522192,0,stoparea:TEC:Bcercab,,1,,
TEC:Bcercsa1,Ceroux Chapelle aux Sabots,50.650145,4.54471,0,stoparea:TEC:Bcercsa,,1,,
TEC:Bcercsa2,Ceroux Chapelle aux Sabots,50.650349,4.546549,0,stoparea:TEC:Bcercsa,,1,,
TEC:Bcerldo1,Limauge Domaine,50.652251,4.536983,0,stoparea:TEC:Bcerldo,,1,,
TEC:Bcerldo2,Limauge Domaine,50.651396,4.53756,0,stoparea:TEC:Bcerldo,,1,,
TEC:Bcerpco1,Ceroux Place Communale,50.65987,4.513278,0,stoparea:TEC:Bcerpco,,1,,
TEC:Bcerpco2,Ceroux Place Communale,50.659762,4.513306,0,stoparea:TEC:Bcerpco,,1,,
TEC:Bchacen1,Chastre Centre,50.609276,4.638453,0,stoparea:TEC:Bchacen,,1,,
TEC:Bchacen2,Chastre Centre,50.609195,4.638579,0,stoparea:TEC:Bchacen,,1,,
TEC:Bchadpt1,Chastre Dépôt,50.607694,4.649647,0,stoparea:TEC:Bchadpt,,1,,
TEC:Bchamco1,Chastre Maison Communale,50.610333,4.643969,0,stoparea:TEC:Bchamco,,1,,
TEC:Bchamco2,Chastre Maison Communale,50.61008,4.644377,0,stoparea:TEC:Bchamco,,1,,
TEC:Bchapir1,Chastre Rue du Piroy,50.606008,4.632712,0,stoparea:TEC:Bchapir,,1,,
TEC:Bchapir2,Chastre Rue du Piroy,50.60624,4.633364,0,stoparea:TEC:Bchapir,,1,,
TEC:Bcharce1,Chastre Rue du Centre,50.605028,4.628935,0,stoparea:TEC:Bcharce,,1,,
TEC:Bcharce2,Chastre Rue du Centre,50.605178,4.630122,0,stoparea:TEC:Bcharce,,1,,
TEC:Bchgbar1,Chaumont-Gistoux Rue de la Barre,50.677114,4.722756,0,stoparea:TEC:Bchgbar,,1,,
TEC:Bchgbar2,Chaumont-Gistoux Rue de la Barre,50.677141,4.722911,0,stoparea:TEC:Bchgbar,,1,,
TEC:Bchgbel1,Chaumont-Gistoux Belvédère,50.67844,4.706169,0,stoparea:TEC:Bchgbel,,1,,
TEC:Bchgbel2,Chaumont-Gistoux Belvédère,50.678362,4.705036,0,stoparea:TEC:Bchgbel,,1,,
TEC:Bchgbru1,Chaumont-Gistoux La Brûle,50.674407,4.717104,0,stoparea:TEC:Bchgbru,,1,,
TEC:Bchgbru2,Chaumont-Gistoux La Brûle,50.674508,4.716412,0,stoparea:TEC:Bchgbru,,1,,
TEC:Bchgcha1,Chaumont-Gistoux Champtaine,50.669866,4.72935,0,stoparea:TEC:Bchgcha,,1,,
TEC:Bchgcha2,Chaumont-Gistoux Champtaine,50.669786,4.729194,0,stoparea:TEC:Bchgcha,,1,,
TEC:Bchgegl1,Chaumont-Gistoux Eglise,50.684983,4.693919,0,stoparea:TEC:Bchgegl,,1,,
TEC:Bchgegl2,Chaumont-Gistoux Eglise,50.68493,4.693749,0,stoparea:TEC:Bchgegl,,1,,
TEC:Bchgflo1,Chaumont-Gistoux Rue Florémond,50.677073,4.733197,0,stoparea:TEC:Bchgflo,,1,,
TEC:Bchgflo2,Chaumont-Gistoux Rue Florémond,50.676966,4.733069,0,stoparea:TEC:Bchgflo,,1,,
TEC:Bchgpap1,Chaumont-Gistoux Rue des Papeteries,50.681513,4.697135,0,stoparea:TEC:Bchgpap,,1,,
TEC:Bchgpap2,Chaumont-Gistoux Rue des Papeteries,50.681325,4.697106,0,stoparea:TEC:Bchgpap,,1,,
TEC:Bchgqve1,Chaumont-Gistoux Queue de Veau,50.672669,4.724038,0,stoparea:TEC:Bchgqve,,1,,
TEC:Bchgqve2,Chaumont-Gistoux Queue de Veau,50.672316,4.724926,0,stoparea:TEC:Bchgqve,,1,,
TEC:Bchgqve3,Chaumont-Gistoux Queue de Veau,50.672467,4.725621,0,stoparea:TEC:Bchgqve,,1,,
TEC:Bchgqve4,Chaumont-Gistoux Queue de Veau,50.672394,4.725733,0,stoparea:TEC:Bchgqve,,1,,
TEC:Bchgrco1,Chaumont-Gistoux  Rue de Corroy,50.682457,4.693901,0,,,1,,
TEC:Bchgrco2,Chaumont-Gistoux  Rue de Corroy,50.682833,4.694428,0,,,1,,
TEC:Bchgvil1,Chaumont-Gistoux Village,50.687339,4.690638,0,stoparea:TEC:Bchgvil,,1,,
TEC:Bchgvil2,Chaumont-Gistoux Village,50.687286,4.690453,0,stoparea:TEC:Bchgvil,,1,,
TEC:Bclgapi1,Corroy-le-Grand Avenue del Pirère,50.690263,4.643913,0,stoparea:TEC:Bclgapi,,1,,
TEC:Bclgapi2,Corroy-le-Grand Avenue del Pirère,50.690281,4.644111,0,stoparea:TEC:Bclgapi,,1,,
TEC:Bclgavi1,Corroy-le-Grand Almez Vicinal,50.664838,4.666693,0,stoparea:TEC:Bclgavi,,1,,
TEC:Bclgavi2,Corroy-le-Grand Almez Vicinal,50.664946,4.666637,0,stoparea:TEC:Bclgavi,,1,,
TEC:Bclgbvi1,Corroy-le-Grand Avenue de la Seigneurie,50.686536,4.642603,0,stoparea:TEC:Bclgbvi,,1,,
TEC:Bclgbvi2,Corroy-le-Grand Avenue de la Seigneurie,50.686687,4.643311,0,stoparea:TEC:Bclgbvi,,1,,
TEC:Bclgeco1,Corroy-le-Grand Ecole,50.66264,4.675052,0,stoparea:TEC:Bclgeco,,1,,
TEC:Bclgeco2,Corroy-le-Grand Ecole,50.662192,4.674851,0,stoparea:TEC:Bclgeco,,1,,
TEC:Bclgegl1,Corroy-le-Grand Eglise,50.660998,4.674051,0,stoparea:TEC:Bclgegl,,1,,
TEC:Bclgegl2,Corroy-le-Grand Eglise,50.660863,4.674093,0,stoparea:TEC:Bclgegl,,1,,
TEC:Bclgfva1,Corroy-le-Grand Ferme Vanderschrik,50.665422,4.670148,0,stoparea:TEC:Bclgfva,,1,,
TEC:Bclgfva2,Corroy-le-Grand Ferme Vanderschrik,50.665376,4.670473,0,stoparea:TEC:Bclgfva,,1,,
TEC:Bclglbu1,Corroy-le-Grand Laid Burniaux,50.667859,4.652099,0,stoparea:TEC:Bclglbu,,1,,
TEC:Bclglbu2,Corroy-le-Grand Laid Burniaux,50.667967,4.652142,0,stoparea:TEC:Bclglbu,,1,,
TEC:Bclgmev1,Vieusart  Rue de Mêves,50.677587,4.640499,0,stoparea:TEC:Bclgmev,,1,,
TEC:Bclgmev2,Vieusart  Rue de Mêves,50.677686,4.640443,0,stoparea:TEC:Bclgmev,,1,,
TEC:Bclgpch1,Vieusart Petit Champ,50.673898,4.633673,0,stoparea:TEC:Bclgpch,,1,,
TEC:Bclgpch2,Vieusart Petit Champ,50.673899,4.633489,0,stoparea:TEC:Bclgpch,,1,,
TEC:Bclgpla1,Vieusart Place,50.679575,4.647331,0,stoparea:TEC:Bclgpla,,1,,
TEC:Bclgpla2,Vieusart Place,50.679891,4.647035,0,stoparea:TEC:Bclgpla,,1,,
TEC:Bclgvmo1,Corroy-le-Grand Vieux Moulin,50.653126,4.665728,0,stoparea:TEC:Bclgvmo,,1,,
TEC:Bclgvmo2,Corroy-le-Grand Vieux Moulin,50.65292,4.665599,0,stoparea:TEC:Bclgvmo,,1,,
TEC:Bclgvse1,Vieux-Sart Eglise,50.674341,4.648361,0,stoparea:TEC:Bclgvse,,1,,
TEC:Bclgvse2,Vieux-Sart Eglise,50.674646,4.648334,0,stoparea:TEC:Bclgvse,,1,,
TEC:Bcrbast1,Corbais Ancienne Station,50.649428,4.659992,0,stoparea:TEC:Bcrbast,,1,,
TEC:Bcrbast2,Corbais Ancienne Station,50.649329,4.660048,0,stoparea:TEC:Bcrbast,,1,,
TEC:Bcrbbou1,Corbais Bousman,50.646117,4.650159,0,stoparea:TEC:Bcrbbou,,1,,
TEC:Bcrbbou2,Corbais Bousman,50.646152,4.650484,0,stoparea:TEC:Bcrbbou,,1,,
TEC:Bcrbcel1,Corbais Cabine Electrique,50.647644,4.654113,0,stoparea:TEC:Bcrbcel,,1,,
TEC:Bcrbcel2,Corbais Cabine Electrique,50.647536,4.654169,0,stoparea:TEC:Bcrbcel,,1,,
TEC:Bcrbgro1,Corbais Grand Route,50.639143,4.649113,0,stoparea:TEC:Bcrbgro,,1,,
TEC:Bcrbgro2,Corbais Grand Route,50.639196,4.649326,0,stoparea:TEC:Bcrbgro,,1,,
TEC:Bcrbhir1,Corbais Rue des Hirondelles,50.646087,4.65498,0,stoparea:TEC:Bcrbhir,,1,,
TEC:Bcrbmsg1,Corbais Route de Mont-Saint-Guibert,50.644831,4.646277,0,stoparea:TEC:Bcrbmsg,,1,,
TEC:Bcrbmsg2,Corbais Route de Mont-Saint-Guibert,50.645,4.647197,0,stoparea:TEC:Bcrbmsg,,1,,
TEC:Bcrbros1,Corbais Rue de la Rose,50.64347,4.651458,0,stoparea:TEC:Bcrbros,,1,,
TEC:Bcrbrpb1,Corbais Chemin de Petit Baty,50.643865,4.644447,0,stoparea:TEC:Bcrbrpb,,1,,
TEC:Bcrbrpb2,Corbais Chemin de Petit Baty,50.64373,4.644447,0,stoparea:TEC:Bcrbrpb,,1,,
TEC:Bcrbtho1,Corbais Rue Thomas,50.641565,4.647615,0,stoparea:TEC:Bcrbtho,,1,,
TEC:Bcrbtho2,Corbais Rue Thomas,50.641717,4.647757,0,stoparea:TEC:Bcrbtho,,1,,
TEC:Bcrncce1,Corsal Centre,50.569568,4.625944,0,stoparea:TEC:Bcrncce,,1,,
TEC:Bcrncce2,Corsal Centre,50.569479,4.625803,0,stoparea:TEC:Bcrncce,,1,,
TEC:Bcrncen1,Cortil Rue du Centre,50.582655,4.639204,0,stoparea:TEC:Bcrncen,,1,,
TEC:Bcrncen2,Cortil Rue du Centre,50.582637,4.639034,0,stoparea:TEC:Bcrncen,,1,,
TEC:Bcrncjo1,Cortil Champ de la Joncquière,50.569613,4.656605,0,stoparea:TEC:Bcrncjo,,1,,
TEC:Bcrncjo2,Cortil Champ de la Joncquière,50.569505,4.656548,0,stoparea:TEC:Bcrncjo,,1,,
TEC:Bcrncor1,Cortil-Noirmont Rue de Corsal,50.572928,4.63096,0,stoparea:TEC:Bcrncor,,1,,
TEC:Bcrncor2,Cortil-Noirmont Rue de Corsal,50.572838,4.631073,0,stoparea:TEC:Bcrncor,,1,,
TEC:Bcrnegl1,Cortil Eglise,50.587363,4.640219,0,stoparea:TEC:Bcrnegl,,1,,
TEC:Bcrnegl2,Cortil Eglise,50.587328,4.64005,0,stoparea:TEC:Bcrnegl,,1,,
TEC:Bcrngat1,Cortil-Noirmont Rue de la Gatte,50.575873,4.636694,0,stoparea:TEC:Bcrngat,,1,,
TEC:Bcrngat2,Cortil-Noirmont Rue de la Gatte,50.575792,4.636807,0,stoparea:TEC:Bcrngat,,1,,
TEC:Bcrnnca1,Noirmont Cantonnier,50.602011,4.646505,0,stoparea:TEC:Bcrnnca,,1,,
TEC:Bcrnnca2,Noirmont Cantonnier,50.602254,4.646492,0,stoparea:TEC:Bcrnnca,,1,,
TEC:Bcrnncb1,Noirmont Ch. Brasserie,50.593788,4.641542,0,stoparea:TEC:Bcrnncb,,1,,
TEC:Bcrnncb2,Noirmont Ch. Brasserie,50.593788,4.641372,0,stoparea:TEC:Bcrnncb,,1,,
TEC:Bcrnnpl1,Noirmont Place,50.590453,4.641565,0,stoparea:TEC:Bcrnnpl,,1,,
TEC:Bcrnnpl2,Noirmont Place,50.590291,4.641394,0,stoparea:TEC:Bcrnnpl,,1,,
TEC:Bcrnnra1,Noirmont Rue Rauwez,50.597066,4.642917,0,stoparea:TEC:Bcrnnra,,1,,
TEC:Bcrnnra2,Noirmont Rue Rauwez,50.596563,4.642829,0,stoparea:TEC:Bcrnnra,,1,,
TEC:Bcrnpla1,Cortil Place,50.580012,4.64293,0,stoparea:TEC:Bcrnpla,,1,,
TEC:Bcrnpla2,Cortil Place,50.579931,4.642803,0,stoparea:TEC:Bcrnpla,,1,,
TEC:Bcrnpla3,Cortil Place,50.579608,4.642646,0,stoparea:TEC:Bcrnpla,,1,,
TEC:Bcrnpla4,Cortil Place,50.579527,4.642772,0,stoparea:TEC:Bcrnpla,,1,,
TEC:Bcrnrpc1,Cortil Rond Point Colonie,50.57465,4.648335,0,stoparea:TEC:Bcrnrpc,,1,,
TEC:Bcrnrpc2,Cortil Rond Point Colonie,50.574551,4.648292,0,stoparea:TEC:Bcrnrpc,,1,,
TEC:Bcrnsge1,Cortil-Noirmont Rue de Saint Géry,50.587484,4.634557,0,stoparea:TEC:Bcrnsge,,1,,
TEC:Bcrnsge2,Cortil-Noirmont Rue de Saint Géry,50.587376,4.634613,0,stoparea:TEC:Bcrnsge,,1,,
TEC:Bcrntru1,Cortil Try des Rudes,50.571981,4.651481,0,stoparea:TEC:Bcrntru,,1,,
TEC:Bcrntru2,Cortil Try des Rudes,50.571892,4.651382,0,stoparea:TEC:Bcrntru,,1,,
TEC:Bcrnvic1,Cortil Rue aux Vichaux,50.577407,4.645824,0,stoparea:TEC:Bcrnvic,,1,,
TEC:Bcrnvic2,Cortil Rue aux Vichaux,50.577227,4.645865,0,stoparea:TEC:Bcrnvic,,1,,
TEC:Bcseaba1,Court-Saint-Etienne Abattoir,50.643292,4.578305,0,stoparea:TEC:Bcseaba,,1,,
TEC:Bcseaba2,Court-Saint-Etienne Abattoir,50.643185,4.578333,0,stoparea:TEC:Bcseaba,,1,,
TEC:Bcsebde1,Court-Saint-Etienne Brasserie Demolder,50.644995,4.560767,0,stoparea:TEC:Bcsebde,,1,,
TEC:Bcsebde2,Court-Saint-Etienne Brasserie Demolder,50.644985,4.561007,0,stoparea:TEC:Bcsebde,,1,,
TEC:Bcsebea1,Court-Saint-Etienne Beaurieux,50.642589,4.59401,0,stoparea:TEC:Bcsebea,,1,,
TEC:Bcsebea2,Court-Saint-Etienne Beaurieux,50.642428,4.593669,0,stoparea:TEC:Bcsebea,,1,,
TEC:Bcsebea3,Court-Saint-Etienne Beaurieux,50.64115,4.589677,0,stoparea:TEC:Bcsebea,,1,,
TEC:Bcsebea4,Court-Saint-Etienne Beaurieux,50.641154,4.587429,0,stoparea:TEC:Bcsebea,,1,,
TEC:Bcsecar1,Court-Saint-Etienne Carrefour,50.652877,4.562001,0,stoparea:TEC:Bcsecar,,1,,
TEC:Bcsecar2,Court-Saint-Etienne Carrefour,50.652777,4.56258,0,stoparea:TEC:Bcsecar,,1,,
TEC:Bcseche1,Court-Saint-Etienne Rue du Chenoy,50.641623,4.571922,0,stoparea:TEC:Bcseche,,1,,
TEC:Bcseche2,Court-Saint-Etienne Rue du Chenoy,50.641623,4.57178,0,stoparea:TEC:Bcseche,,1,,
TEC:Bcseeco1,Court-Saint-Etienne Ecole Provinciale,50.649333,4.563316,0,stoparea:TEC:Bcseeco,,1,,
TEC:Bcseeco2,Court-Saint-Etienne Ecole Provinciale,50.64944,4.563571,0,stoparea:TEC:Bcseeco,,1,,
TEC:Bcseeco3,Court-Saint-Etienne Ecole Provinciale,50.649504,4.563231,0,stoparea:TEC:Bcseeco,,1,,
TEC:Bcsegal1,Court-St-Etienne Clos Gala,50.637992,4.543647,0,stoparea:TEC:Bcsegal,,1,,
TEC:Bcsegal2,Court-St-Etienne Clos Gala,50.638197,4.544666,0,stoparea:TEC:Bcsegal,,1,,
TEC:Bcsegar1,Court-Saint-Etienne Gare,50.646146,4.566144,0,stoparea:TEC:Bcsegar,,1,,
TEC:Bcsegar2,Court-Saint-Etienne Gare,50.646137,4.565918,0,stoparea:TEC:Bcsegar,,1,,
TEC:Bcsemar1,Court-Saint-Etienne Maroquinerie,50.633686,4.537313,0,stoparea:TEC:Bcsemar,,1,,
TEC:Bcsemar2,Court-Saint-Etienne Maroquinerie,50.63373,4.537638,0,stoparea:TEC:Bcsemar,,1,,
TEC:Bcsemon1,Court-Saint-Etienne Monument,50.643446,4.567731,0,stoparea:TEC:Bcsemon,,1,,
TEC:Bcsemon2,Court-Saint-Etienne Monument,50.643518,4.567575,0,stoparea:TEC:Bcsemon,,1,,
TEC:Bcsempl1,Merivaux Place,50.640598,4.54999,0,stoparea:TEC:Bcsempl,,1,,
TEC:Bcsempl2,Merivaux Place,50.640678,4.550655,0,stoparea:TEC:Bcsempl,,1,,
TEC:Bcsen251,Court-Saint-Etienne N25,50.641242,4.588419,0,stoparea:TEC:Bcsen25,,1,,
TEC:Bcsen252,Court-Saint-Etienne N25,50.641045,4.588305,0,stoparea:TEC:Bcsen25,,1,,
TEC:Bcsepes1,Court-Saint-Etienne Rue Petite Escavée,50.652474,4.555862,0,stoparea:TEC:Bcsepes,,1,,
TEC:Bcsepes2,Court-Saint-Etienne Rue Petite Escavée,50.652419,4.556385,0,stoparea:TEC:Bcsepes,,1,,
TEC:Bcsgcou1,Couture-Saint-Germain Couture,50.675762,4.473105,0,stoparea:TEC:Bcsgcou,,1,,
TEC:Bcsgcou2,Couture-Saint-Germain Couture,50.675798,4.472949,0,stoparea:TEC:Bcsgcou,,1,,
TEC:Bcsgres1,Couture-Saint-Germain Rue du Réservoir,50.653115,4.484579,0,stoparea:TEC:Bcsgres,,1,,
TEC:Bdlmegl1,Dion-le-Mont Eglise,50.699168,4.660668,0,stoparea:TEC:Bdlmegl,,1,,
TEC:Bdlmegl2,Dion-le-Mont Eglise,50.699247,4.661107,0,stoparea:TEC:Bdlmegl,,1,,
TEC:Bdlmflo1,Dion-le-Mont Ferme de Louvrange,50.696823,4.641587,0,stoparea:TEC:Bdlmflo,,1,,
TEC:Bdlmflo2,Dion-le-Mont Ferme de Louvrange,50.696886,4.64146,0,stoparea:TEC:Bdlmflo,,1,,
TEC:Bdlmgla1,Dion-le-Mont Chemin des Glaneurs,50.694302,4.639237,0,stoparea:TEC:Bdlmgla,,1,,
TEC:Bdlmgla2,Dion-le-Mont Chemin des Glaneurs,50.694248,4.63901,0,stoparea:TEC:Bdlmgla,,1,,
TEC:Bdlmgla3,Dion-le-Mont Chemin des Glaneurs,50.693475,4.639275,0,stoparea:TEC:Bdlmgla,,1,,
TEC:Bdlmgla4,Dion-le-Mont Chemin des Glaneurs,50.693745,4.639008,0,stoparea:TEC:Bdlmgla,,1,,
TEC:Bdlvpco1,Dion-le-Val Place Communale,50.716587,4.66171,0,stoparea:TEC:Bdlvpco,,1,,
TEC:Bdlvpco2,Dion-le-Val Place Communale,50.716533,4.661852,0,stoparea:TEC:Bdlvpco,,1,,
TEC:Bdoncar1,Dongelberg Carrières,50.69601,4.817136,0,stoparea:TEC:Bdoncar,,1,,
TEC:Bdoncar2,Dongelberg Carrières,50.695937,4.817588,0,stoparea:TEC:Bdoncar,,1,,
TEC:Bdoncen1,Dongelberg Centre,50.700697,4.821017,0,stoparea:TEC:Bdoncen,,1,,
TEC:Bdoncen2,Dongelberg Centre,50.70075,4.821173,0,stoparea:TEC:Bdoncen,,1,,
TEC:Bdonlat1,Dongelberg Route de Lathuy,50.703781,4.820962,0,stoparea:TEC:Bdonlat,,1,,
TEC:Bdonlat2,Dongelberg Route de Lathuy,50.70345,4.820449,0,stoparea:TEC:Bdonlat,,1,,
TEC:Bdvm4ca1,Dion-Valmont Quatre Carrés,50.699691,4.670594,0,stoparea:TEC:Bdvm4ca,,1,,
TEC:Bdvm4ca2,Dion-Valmont Quatre Carrés,50.699655,4.670395,0,stoparea:TEC:Bdvm4ca,,1,,
TEC:Bdvmalo1,Dion-Valmont Avenue des Alouettes,50.69852,4.64992,0,stoparea:TEC:Bdvmalo,,1,,
TEC:Bdvmalo2,Dion-Valmont Avenue des Alouettes,50.698314,4.649522,0,stoparea:TEC:Bdvmalo,,1,,
TEC:Bdvmc031,Dion-Valmont Boulevard du Centenaire 3,50.712838,4.65836,0,stoparea:TEC:Bdvmc03,,1,,
TEC:Bdvmc032,Dion-Valmont Boulevard du Centenaire 3,50.712784,4.658515,0,stoparea:TEC:Bdvmc03,,1,,
TEC:Bdvmc431,Dion-Valmont Boulevard du Centenaire 43,50.709247,4.6562,0,stoparea:TEC:Bdvmc43,,1,,
TEC:Bdvmc432,Dion-Valmont Boulevard du Centenaire 43,50.709175,4.656426,0,stoparea:TEC:Bdvmc43,,1,,
TEC:Bdvmcbo1,Dion-Valmont Cité de Bonly,50.702456,4.646546,0,stoparea:TEC:Bdvmcbo,,1,,
TEC:Bdvmcbo2,Dion-Valmont Cité de Bonly,50.70252,4.646405,0,stoparea:TEC:Bdvmcbo,,1,,
TEC:Bdvmccu1,Dion-Valmont Café Cumps,50.704614,4.650155,0,stoparea:TEC:Bdvmccu,,1,,
TEC:Bdvmccu2,Dion-Valmont Café Cumps,50.704453,4.650168,0,stoparea:TEC:Bdvmccu,,1,,
TEC:Bdvmcsa1,Dion-Valmont Chapelle Saint-Antoine,50.698271,4.656118,0,stoparea:TEC:Bdvmcsa,,1,,
TEC:Bdvmcsa2,Dion-Valmont Chapelle Saint-Antoine,50.698326,4.655751,0,stoparea:TEC:Bdvmcsa,,1,,
TEC:Bdvminc1,Dion-Valmont Route d'Inchebroux,50.691641,4.682204,0,stoparea:TEC:Bdvminc,,1,,
TEC:Bdvminc2,Dion-Valmont Route d'Inchebroux,50.691434,4.682457,0,stoparea:TEC:Bdvminc,,1,,
TEC:Bdvmsar1,Dion-Valmont Sarthe,50.704242,4.658986,0,stoparea:TEC:Bdvmsar,,1,,
TEC:Bdvmsar2,Dion-Valmont Sarthe,50.704072,4.658744,0,stoparea:TEC:Bdvmsar,,1,,
TEC:Bdvmtve1,Dion-Valmont Tout Vent,50.695988,4.673755,0,stoparea:TEC:Bdvmtve,,1,,
TEC:Bdvmtve2,Dion-Valmont Tout Vent,50.695871,4.673697,0,stoparea:TEC:Bdvmtve,,1,,
TEC:Becebju1,Enghien La Belle Julie,50.557191,4.132731,0,stoparea:TEC:Becebju,,1,,
TEC:Becebju2,Enghien La Belle Julie,50.557236,4.132534,0,stoparea:TEC:Becebju,,1,,
TEC:Becegar1,Ecaussinnes Gare,50.562165,4.157336,0,stoparea:TEC:Becegar,,1,,
TEC:Becepco1,Enghien Place Cousin,50.562373,4.152762,0,stoparea:TEC:Becepco,,1,,
TEC:Becepco2,Enghien Place Cousin,50.562614,4.152111,0,stoparea:TEC:Becepco,,1,,
TEC:Becepon1,Enghien Pont,50.560898,4.157807,0,stoparea:TEC:Becepon,,1,,
TEC:Becepon2,Enghien Pont,50.56097,4.157891,0,stoparea:TEC:Becepon,,1,,
TEC:Becepri1,Enghien Rue des Primevères,50.565042,4.162291,0,stoparea:TEC:Becepri,,1,,
TEC:Becepri2,Enghien Rue des Primevères,50.56524,4.162417,0,stoparea:TEC:Becepri,,1,,
TEC:Becepro1,Enghien Rue du Profondrieux,50.562788,4.144235,0,stoparea:TEC:Becepro,,1,,
TEC:Becepro2,Enghien Rue du Profondrieux,50.56296,4.144587,0,stoparea:TEC:Becepro,,1,,
TEC:Beceres1,Enghien Restaumont,50.560717,4.137738,0,stoparea:TEC:Beceres,,1,,
TEC:Beceres2,Enghien Restaumont,50.560572,4.137344,0,stoparea:TEC:Beceres,,1,,
TEC:Becesbo1,Enghien Scierie au Bois,50.563224,4.146421,0,stoparea:TEC:Becesbo,,1,,
TEC:Becesbo2,Enghien Scierie au Bois,50.563343,4.147591,0,stoparea:TEC:Becesbo,,1,,
TEC:Beclaub1,Ecaussinnes-Lalaing Les Aubéries,50.569266,4.18332,0,stoparea:TEC:Beclaub,,1,,
TEC:Beclaub2,Ecaussinnes-Lalaing Les Aubéries,50.568718,4.183167,0,stoparea:TEC:Beclaub,,1,,
TEC:Beclbar1,Ecaussinnes-Lalaing Barouche,50.568595,4.209324,0,stoparea:TEC:Beclbar,,1,,
TEC:Beclbar2,Ecaussinnes-Lalaing Barouche,50.568433,4.209437,0,stoparea:TEC:Beclbar,,1,,
TEC:Beclbse1,Ecaussinnes-Lalaing Bd de la Sennette,50.565191,4.170435,0,stoparea:TEC:Beclbse,,1,,
TEC:Beclbse2,Ecaussinnes-Lalaing Bd de la Sennette,50.564984,4.17021,0,stoparea:TEC:Beclbse,,1,,
TEC:Beclesp1,Ecaussinnes-Lalaing L'Espinette,50.561945,4.175487,0,stoparea:TEC:Beclesp,,1,,
TEC:Beclesp2,Ecaussinnes-Lalaing L'Espinette,50.561765,4.175361,0,stoparea:TEC:Beclesp,,1,,
TEC:Beclfde1,Ecaussinnes-Lalaing Ferme Debrichy,50.568208,4.222749,0,stoparea:TEC:Beclfde,,1,,
TEC:Beclfde2,Ecaussinnes-Lalaing Ferme Debrichy,50.568072,4.222016,0,stoparea:TEC:Beclfde,,1,,
TEC:Beclpla1,Ecaussinnes Place,50.569765,4.17458,0,stoparea:TEC:Beclpla,,1,,
TEC:Beclpla2,Ecaussinnes Place,50.569837,4.174664,0,stoparea:TEC:Beclpla,,1,,
TEC:Beclpma1,Ecaussinnes-Lalaing Petit Maquis,50.560665,4.16797,0,stoparea:TEC:Beclpma,,1,,
TEC:Beclpma2,Ecaussinnes-Lalaing Petit Maquis,50.560857,4.16986,0,stoparea:TEC:Beclpma,,1,,
TEC:Beclron1,Ecaussinnes-Lalaing Chemin de Ronquières,50.574405,4.192716,0,stoparea:TEC:Beclron,,1,,
TEC:Beclron2,Ecaussinnes-Lalaing Chemin de Ronquières,50.574442,4.193013,0,stoparea:TEC:Beclron,,1,,
TEC:Becltri1,Ecaussinnes-Lalaing Triboureau,50.571606,4.202637,0,stoparea:TEC:Becltri,,1,,
TEC:Becltri2,Ecaussinnes-Lalaing Triboureau,50.571382,4.202906,0,stoparea:TEC:Becltri,,1,,
TEC:Benggar1,Enghien Gare,50.697016,4.046796,0,stoparea:TEC:Benggar,,1,,
TEC:Bengvma1,Enghien Vieux Marché,50.694831,4.043598,0,stoparea:TEC:Bengvma,,1,,
TEC:Bengvma2,Enghien Vieux Marché,50.694649,4.045935,0,stoparea:TEC:Bengvma,,1,,
TEC:Benimar1,Enines Route de Marilles,50.699311,4.927211,0,stoparea:TEC:Benimar,,1,,
TEC:Benimar2,Enines Route de Marilles,50.699564,4.927072,0,stoparea:TEC:Benimar,,1,,
TEC:Benimar4,Enines Route de Marilles,50.69938,4.927948,0,stoparea:TEC:Benimar,,1,,
TEC:Berncim1,Ernage Cimetière,50.597039,4.6756,0,stoparea:TEC:Berncim,,1,,
TEC:Berncim2,Ernage Cimetière,50.596525,4.676162,0,stoparea:TEC:Berncim,,1,,
TEC:Berncim3,Ernage Cimetière,50.596265,4.675581,0,stoparea:TEC:Berncim,,1,,
TEC:Berncim4,Ernage Cimetière,50.596059,4.675283,0,stoparea:TEC:Berncim,,1,,
TEC:Berneco1,Ernage Ecoles Jules Lejeune,50.580496,4.686054,0,stoparea:TEC:Berneco,,1,,
TEC:Berneco2,Ernage Ecoles Jules Lejeune,50.579946,4.686643,0,stoparea:TEC:Berneco,,1,,
TEC:Bernegl3,Ernage Eglise,50.594291,4.674453,0,stoparea:TEC:Bernegl,,1,,
TEC:Bernegl4,Ernage Eglise,50.594425,4.674637,0,stoparea:TEC:Bernegl,,1,,
TEC:Berngrt1,Ernage Grand' Route,50.592356,4.678522,0,stoparea:TEC:Berngrt,,1,,
TEC:Berngrt2,Ernage Grand' Route,50.591905,4.679197,0,stoparea:TEC:Berngrt,,1,,
TEC:Bernpla1,Ernage Place,50.592688,4.668539,0,stoparea:TEC:Bernpla,,1,,
TEC:Bernpon1,Ernage Pont,50.587303,4.67171,0,stoparea:TEC:Bernpon,,1,,
TEC:Bernpon2,Ernage Pont,50.587267,4.671865,0,stoparea:TEC:Bernpon,,1,,
TEC:Bernrar1,Ernage Rue Auguste Romain,50.591585,4.674407,0,stoparea:TEC:Bernrar,,1,,
TEC:Bernrar2,Ernage Rue Auguste Romain,50.591557,4.674562,0,stoparea:TEC:Bernrar,,1,,
TEC:Bettars1,Etterbeek Arsenal,50.82651,4.396727,0,stoparea:TEC:Bettars,,1,,
TEC:Bettars2,Etterbeek Arsenal,50.826429,4.396599,0,stoparea:TEC:Bettars,,1,,
TEC:Bettbue1,Etterbeek Buedts,50.82847,4.393463,0,stoparea:TEC:Bettbue,,1,,
TEC:Bettbue2,Etterbeek Buedts,50.828219,4.393648,0,stoparea:TEC:Bettbue,,1,,
TEC:Bettcha1,Etterbeek Avenue de la Chasse,50.829936,4.391037,0,stoparea:TEC:Bettcha,,1,,
TEC:Bettcha2,Etterbeek Avenue de la Chasse,50.830871,4.389902,0,stoparea:TEC:Bettcha,,1,,
TEC:Bettcha3,Etterbeek Avenue de la Chasse,50.830907,4.390086,0,stoparea:TEC:Bettcha,,1,,
TEC:Bettgar1,Etterbeek Gare,50.821864,4.388918,0,stoparea:TEC:Bettgar,,1,,
TEC:Bettgle1,Etterbeek Général Leman,50.836643,4.387051,0,stoparea:TEC:Bettgle,,1,,
TEC:Bettgle2,Etterbeek Général Leman,50.836949,4.386682,0,stoparea:TEC:Bettgle,,1,,
TEC:Bettlha1,Etterbeek Louis Hap,50.834144,4.38837,0,stoparea:TEC:Bettlha,,1,,
TEC:Bettlha2,Etterbeek Louis Hap,50.83445,4.388001,0,stoparea:TEC:Bettlha,,1,,
TEC:Bezebru2,Ezemaal Brug,50.769725,4.997413,0,stoparea:TEC:Bezebru,,1,,
TEC:Bezegar2,Ezemaal Station,50.771828,4.994138,0,stoparea:TEC:Bezegar,,1,,
TEC:Bezeksj1,Ezemaal Kapel Sint-Job,50.766896,4.995079,0,stoparea:TEC:Bezeksj,,1,,
TEC:Bezeksj2,Ezemaal Kapel Sint-Job,50.766688,4.995317,0,stoparea:TEC:Bezeksj,,1,,
TEC:Bezeksj3,Ezemaal Kapel Sint-Job,50.766175,4.993807,0,stoparea:TEC:Bezeksj,,1,,
TEC:Bezeksj4,Ezemaal Kapel Sint-Job,50.766248,4.993638,0,stoparea:TEC:Bezeksj,,1,,
TEC:Bfelada1,Feluy Auberge du Dauphin,50.556493,4.27517,0,stoparea:TEC:Bfelada,,1,,
TEC:Bfelada2,Feluy Auberge du Dauphin,50.55688,4.275691,0,stoparea:TEC:Bfelada,,1,,
TEC:Bfelagb1,Feluy Av. Gaston Baudoux,50.565297,4.267022,0,stoparea:TEC:Bfelagb,,1,,
TEC:Bfelbri1,Feluy La Bride,50.561875,4.271334,0,stoparea:TEC:Bfelbri,,1,,
TEC:Bfelbri2,Feluy La Bride,50.561579,4.271603,0,stoparea:TEC:Bfelbri,,1,,
TEC:Bfelbri3,Feluy La Bride,50.561551,4.270559,0,stoparea:TEC:Bfelbri,,1,,
TEC:Bfelcen1,Feluy Centenaire,50.56495,4.251822,0,stoparea:TEC:Bfelcen,,1,,
TEC:Bfelcen2,Feluy Centenaire,50.565301,4.252244,0,stoparea:TEC:Bfelcen,,1,,
TEC:Bfelcsa1,Feluy Chapelle Sainte-Anne,50.562691,4.240719,0,stoparea:TEC:Bfelcsa,,1,,
TEC:Bfelcsa2,Feluy Chapelle Sainte-Anne,50.562592,4.240607,0,stoparea:TEC:Bfelcsa,,1,,
TEC:Bfelequ1,Feluy Equipée,50.562494,4.259449,0,stoparea:TEC:Bfelequ,,1,,
TEC:Bfelequ2,Feluy Equipée,50.562485,4.259901,0,stoparea:TEC:Bfelequ,,1,,
TEC:Bfelfde1,Feluy Ferme Dehaye,50.56584,4.23546,0,stoparea:TEC:Bfelfde,,1,,
TEC:Bfelfde2,Feluy Ferme Dehaye,50.565696,4.235418,0,stoparea:TEC:Bfelfde,,1,,
TEC:Bfelgar2,Feluy Gare,50.564176,4.270201,0,stoparea:TEC:Bfelgar,,1,,
TEC:Bfelgar3,Feluy Gare,50.564337,4.269932,0,stoparea:TEC:Bfelgar,,1,,
TEC:Bfelpla1,Feluy Place,50.563412,4.250894,0,stoparea:TEC:Bfelpla,,1,,
TEC:Bfelpla2,Feluy Place,50.562998,4.250867,0,stoparea:TEC:Bfelpla,,1,,
TEC:Bfelpmo1,Feluy Petit Moulin,50.56588,4.256647,0,stoparea:TEC:Bfelpmo,,1,,
TEC:Bfelpmo2,Feluy Petit Moulin,50.565799,4.256576,0,stoparea:TEC:Bfelpmo,,1,,
TEC:Bfelrav1,Feluy La Ravisée,50.551042,4.27106,0,stoparea:TEC:Bfelrav,,1,,
TEC:Bfelrav2,Feluy La Ravisée,50.550979,4.271258,0,stoparea:TEC:Bfelrav,,1,,
TEC:Bflccav1,Folx-les-Caves Les Caves,50.664445,4.940702,0,stoparea:TEC:Bflccav,,1,,
TEC:Bflccav2,Folx-les-Caves Les Caves,50.664168,4.940472,0,stoparea:TEC:Bflccav,,1,,
TEC:Bflcneu1,Folx-les-Caves Rue Neuve,50.659075,4.932165,0,stoparea:TEC:Bflcneu,,1,,
TEC:Bflcneu2,Folx-les-Caves Rue Neuve,50.659022,4.931825,0,stoparea:TEC:Bflcneu,,1,,
TEC:Bflcpco1,Folx-les-Caves Place Communale,50.660571,4.936836,0,stoparea:TEC:Bflcpco,,1,,
TEC:Bflcpco2,Folx-les-Caves Place Communale,50.66067,4.936894,0,stoparea:TEC:Bflcpco,,1,,
TEC:Bfledpi1,Fleurus Dieu de Piété,50.493665,4.549243,0,stoparea:TEC:Bfledpi,,1,,
TEC:Bfledpi2,Fleurus Dieu de Piété,50.494015,4.549498,0,stoparea:TEC:Bfledpi,,1,,
TEC:Bflegar5,Fleurus Gare,50.482264,4.544268,0,stoparea:TEC:Bflegar,,1,,
TEC:Bflegar6,Fleurus Gare,50.4823,4.544127,0,stoparea:TEC:Bflegar,,1,,
TEC:Bgdhbvu1,Grand-Hallet Belle Vue,50.694879,5.053908,0,stoparea:TEC:Bgdhbvu,,1,,
TEC:Bgdhbvu2,Grand-Hallet Belle Vue,50.695149,5.053856,0,stoparea:TEC:Bgdhbvu,,1,,
TEC:Bgdhcsh1,Grand-Hallet Café Saint-Honoré,50.697148,5.039433,0,stoparea:TEC:Bgdhcsh,,1,,
TEC:Bgdhcsh2,Grand-Hallet Café Saint-Honoré,50.697282,5.039491,0,stoparea:TEC:Bgdhcsh,,1,,
TEC:Bgdhdet1,Grand-Hallet Detiste,50.701154,5.047828,0,stoparea:TEC:Bgdhdet,,1,,
TEC:Bgdhdet2,Grand-Hallet Detiste,50.700938,5.04781,0,stoparea:TEC:Bgdhdet,,1,,
TEC:Bgdhlai1,Grand-Hallet Laiterie,50.694296,5.039732,0,stoparea:TEC:Bgdhlai,,1,,
TEC:Bgdhlai2,Grand-Hallet Laiterie,50.694273,5.039109,0,stoparea:TEC:Bgdhlai,,1,,
TEC:Bgdhmet1,Grand-Hallet Métalchimex,50.698529,5.043104,0,stoparea:TEC:Bgdhmet,,1,,
TEC:Bgdhmet2,Grand-Hallet Métalchimex,50.698894,5.043662,0,stoparea:TEC:Bgdhmet,,1,,
TEC:Bgdhpco1,Grand-Hallet Place Communale,50.693468,5.033591,0,stoparea:TEC:Bgdhpco,,1,,
TEC:Bgdhpco2,Grand-Hallet Place Communale,50.693462,5.033138,0,stoparea:TEC:Bgdhpco,,1,,
TEC:Bgembhe1,Gembloux Bois Henry,50.54358,4.723913,0,stoparea:TEC:Bgembhe,,1,,
TEC:Bgembhe2,Gembloux Bois Henry,50.543482,4.723757,0,stoparea:TEC:Bgembhe,,1,,
TEC:Bgembsg1,Gembloux Buisson Saint-Guibert,50.568727,4.686271,0,stoparea:TEC:Bgembsg,,1,,
TEC:Bgembsg2,Gembloux Buisson Saint-Guibert,50.568744,4.686441,0,stoparea:TEC:Bgembsg,,1,,
TEC:Bgemcha1,Grand-Manil Chaussée de Charleroi,50.560298,4.678156,0,stoparea:TEC:Bgemcha,,1,,
TEC:Bgemcha2,Grand-Manil Chaussée de Charleroi,50.559909,4.679198,0,stoparea:TEC:Bgemcha,,1,,
TEC:Bgemcro1,Gembloux La Croisée,50.573358,4.698768,0,stoparea:TEC:Bgemcro,,1,,
TEC:Bgemcro2,Gembloux La Croisée,50.572846,4.698468,0,stoparea:TEC:Bgemcro,,1,,
TEC:Bgemfbo1,Gembloux Rue F. Bovesse,50.572419,4.684009,0,stoparea:TEC:Bgemfbo,,1,,
TEC:Bgemfbo2,Gembloux Rue F. Bovesse,50.572482,4.684151,0,stoparea:TEC:Bgemfbo,,1,,
TEC:Bgemga07,Gembloux Gare,50.570985,4.689011,0,stoparea:TEC:Bgemga0,,1,,
TEC:Bgemga08,Gembloux Gare,50.570903,4.689222,0,stoparea:TEC:Bgemga0,,1,,
TEC:Bgemga09,Gembloux Gare,50.570822,4.689419,0,stoparea:TEC:Bgemga0,,1,,
TEC:Bgemga10,Gembloux Gare,50.57074,4.689631,0,stoparea:TEC:Bgemga1,,1,,
TEC:Bgemga11,Gembloux Gare,50.57065,4.689842,0,stoparea:TEC:Bgemga1,,1,,
TEC:Bgemga12,Gembloux Gare,50.570559,4.690067,0,stoparea:TEC:Bgemga1,,1,,
TEC:Bgemgcw1,Gembloux Gare (Ch. de Wavre),50.569229,4.693192,0,stoparea:TEC:Bgemgcw,,1,,
TEC:Bgemgjo1,Gembloux Garage Jouant,50.574063,4.690952,0,stoparea:TEC:Bgemgjo,,1,,
TEC:Bgemgjo2,Gembloux Garage Jouant,50.57583,4.689228,0,stoparea:TEC:Bgemgjo,,1,,
TEC:Bgemibb1,Gembloux IBB,50.577765,4.704489,0,stoparea:TEC:Bgemibb,,1,,
TEC:Bgemibb2,Gembloux IBB,50.577674,4.704658,0,stoparea:TEC:Bgemibb,,1,,
TEC:Bgemkal1,Gembloux Kalorik,50.57995,4.707272,0,stoparea:TEC:Bgemkal,,1,,
TEC:Bgemkal2,Gembloux Kalorik,50.579278,4.706702,0,stoparea:TEC:Bgemkal,,1,,
TEC:Bgemman1,Gembloux Manufacturing,50.575544,4.701565,0,stoparea:TEC:Bgemman,,1,,
TEC:Bgemman2,Gembloux Manufacturing,50.575274,4.701521,0,stoparea:TEC:Bgemman,,1,,
TEC:Bgemrom3,Gembloux Chaussée Romaine,50.575127,4.680004,0,stoparea:TEC:Bgemrom,,1,,
TEC:Bgemrom4,Gembloux Chaussée Romaine,50.575207,4.680117,0,stoparea:TEC:Bgemrom,,1,,
TEC:Bgercen1,Gerompont Centre,50.64743,4.877998,0,stoparea:TEC:Bgercen,,1,,
TEC:Bgercen2,Gerompont Centre,50.647396,4.877573,0,stoparea:TEC:Bgercen,,1,,
TEC:Bgerd321,Gerompont Avenue des Déportés 32,50.642992,4.866851,0,stoparea:TEC:Bgerd32,,1,,
TEC:Bgerd322,Gerompont Avenue des Déportés 32,50.642931,4.86637,0,stoparea:TEC:Bgerd32,,1,,
TEC:Bgermco1,Gerompont Maison Communale,50.644189,4.870625,0,stoparea:TEC:Bgermco,,1,,
TEC:Bgermco2,Gerompont Maison Communale,50.644226,4.870385,0,stoparea:TEC:Bgermco,,1,,
TEC:Bgerprg1,Petit-Rosiere Gare,50.640379,4.859755,0,stoparea:TEC:Bgerprg,,1,,
TEC:Bgerprg2,Petit-Rosiere Gare,50.640221,4.858848,0,stoparea:TEC:Bgerprg,,1,,
TEC:Bgisber1,Gistoux Sentier du Berger,50.67598,4.685835,0,stoparea:TEC:Bgisber,,1,,
TEC:Bgisber2,Gistoux Sentier du Berger,50.676096,4.686104,0,stoparea:TEC:Bgisber,,1,,
TEC:Bgisman1,Gistoux Manypré,50.671951,4.683105,0,stoparea:TEC:Bgisman,,1,,
TEC:Bgisman2,Gistoux Manypré,50.671753,4.683203,0,stoparea:TEC:Bgisman,,1,,
TEC:Bglabra1,Glabais Brasserie,50.626256,4.434425,0,stoparea:TEC:Bglabra,,1,,
TEC:Bglache1,Glabais Chemin de l'Eglise,50.629165,4.45416,0,stoparea:TEC:Bglache,,1,,
TEC:Bglacsr1,Glabais Chapelle Saint-Roch,50.62919,4.456337,0,stoparea:TEC:Bglacsr,,1,,
TEC:Bglarha1,Glabais Rue Haute,50.628543,4.442965,0,stoparea:TEC:Bglarha,,1,,
TEC:Bgliaau1,Glimes A l'Ancienne Auberge,50.678914,4.818756,0,stoparea:TEC:Bgliaau,,1,,
TEC:Bgliaau2,Glimes A l'Ancienne Auberge,50.678843,4.818557,0,stoparea:TEC:Bgliaau,,1,,
TEC:Bglicsm1,Glimes Carrefour Saint-Michel,50.672629,4.825996,0,stoparea:TEC:Bglicsm,,1,,
TEC:Bglicsm2,Glimes Carrefour Saint-Michel,50.672619,4.826251,0,stoparea:TEC:Bglicsm,,1,,
TEC:Bgliegl1,Glimes Eglise,50.678631,4.835831,0,stoparea:TEC:Bgliegl,,1,,
TEC:Bgliegl2,Glimes Eglise,50.678523,4.835873,0,stoparea:TEC:Bgliegl,,1,,
TEC:Bgligli1,Glimes Route de Glimes,50.6827,4.834542,0,stoparea:TEC:Bgligli,,1,,
TEC:Bgligli2,Glimes Route de Glimes,50.682466,4.834596,0,stoparea:TEC:Bgligli,,1,,
TEC:Bgligra1,Glimes La Grange,50.667126,4.819294,0,stoparea:TEC:Bgligra,,1,,
TEC:Bgligra2,Glimes La Grange,50.667035,4.819463,0,stoparea:TEC:Bgligra,,1,,
TEC:Bgliopp1,Glimes Route d'Opprebais,50.686492,4.81181,0,stoparea:TEC:Bgliopp,,1,,
TEC:Bgliopp2,Glimes Route d'Opprebais,50.686403,4.811568,0,stoparea:TEC:Bgliopp,,1,,
TEC:Bgliopp3,Glimes Route d'Opprebais,50.68527,4.811685,0,stoparea:TEC:Bgliopp,,1,,
TEC:Bgliopp4,Glimes Route d'Opprebais,50.685376,4.812294,0,stoparea:TEC:Bgliopp,,1,,
TEC:Bglitro1,Glimes Tombe Romaine,50.67634,4.833361,0,stoparea:TEC:Bglitro,,1,,
TEC:Bglitro2,Glimes Tombe Romaine,50.676097,4.833189,0,stoparea:TEC:Bglitro,,1,,
TEC:Bgnpchb1,Genappe Chaussée de Bruxelles,50.616801,4.444826,0,stoparea:TEC:Bgnpchb,,1,,
TEC:Bgnpegl1,Genappe Eglise,50.610765,4.450849,0,stoparea:TEC:Bgnpegl,,1,,
TEC:Bgnpegl2,Genappe Eglise,50.610639,4.450877,0,stoparea:TEC:Bgnpegl,,1,,
TEC:Bgnpegl3,Genappe Eglise,50.611637,4.451204,0,stoparea:TEC:Bgnpegl,,1,,
TEC:Bgnpegl4,Genappe Eglise,50.611565,4.450921,0,stoparea:TEC:Bgnpegl,,1,,
TEC:Bgnpgar1,Genappe Gare,50.608213,4.449319,0,stoparea:TEC:Bgnpgar,,1,,
TEC:Bgnpgar2,Genappe Gare,50.608014,4.450844,0,stoparea:TEC:Bgnpgar,,1,,
TEC:Bgnpgen1,Genappe Gendarmerie,50.614361,4.449909,0,stoparea:TEC:Bgnpgen,,1,,
TEC:Bgnpgen2,Genappe Gendarmerie,50.614433,4.450093,0,stoparea:TEC:Bgnpgen,,1,,
TEC:Bgnpjbe1,Genappe Rue Joseph Berger,50.609239,4.447018,0,stoparea:TEC:Bgnpjbe,,1,,
TEC:Bgnpjbe2,Genappe Rue Joseph Berger,50.608773,4.445661,0,stoparea:TEC:Bgnpjbe,,1,,
TEC:Bgnppem1,Genappe Place de l'Empereur,50.613471,4.450557,0,stoparea:TEC:Bgnppem,,1,,
TEC:Bgnppra1,Genappe La Praie,50.618596,4.448927,0,stoparea:TEC:Bgnppra,,1,,
TEC:Bgntalt1,Gentinnes Altiau,50.573911,4.604481,0,stoparea:TEC:Bgntalt,,1,,
TEC:Bgntalt2,Gentinnes Altiau,50.573848,4.604368,0,stoparea:TEC:Bgntalt,,1,,
TEC:Bgntalt3,Gentinnes Altiau,50.572545,4.604249,0,stoparea:TEC:Bgntalt,,1,,
TEC:Bgntalt4,Gentinnes Altiau,50.573137,4.604675,0,stoparea:TEC:Bgntalt,,1,,
TEC:Bgntcbo1,Gentinnes Coin du Bois,50.559685,4.592428,0,stoparea:TEC:Bgntcbo,,1,,
TEC:Bgntcbo2,Gentinnes Coin du Bois,50.559703,4.592597,0,stoparea:TEC:Bgntcbo,,1,,
TEC:Bgntcha1,Gentinnes Rue Charlemont,50.58184,4.60445,0,stoparea:TEC:Bgntcha,,1,,
TEC:Bgntcha2,Gentinnes Rue Charlemont,50.581606,4.60459,0,stoparea:TEC:Bgntcha,,1,,
TEC:Bgntcom1,Gentinnes Les Communes,50.565006,4.59306,0,stoparea:TEC:Bgntcom,,1,,
TEC:Bgntcom2,Gentinnes Les Communes,50.564925,4.593173,0,stoparea:TEC:Bgntcom,,1,,
TEC:Bgntcoo1,Gentinnes Coopérative,50.5782,4.604249,0,stoparea:TEC:Bgntcoo,,1,,
TEC:Bgntcoo2,Gentinnes Coopérative,50.578218,4.604122,0,stoparea:TEC:Bgntcoo,,1,,
TEC:Bgnteco1,Gentinnes Ecoles,50.577008,4.6066,0,stoparea:TEC:Bgnteco,,1,,
TEC:Bgnteco2,Gentinnes Ecoles,50.577745,4.606901,0,stoparea:TEC:Bgnteco,,1,,
TEC:Bgntffo1,Gentinnes Ferme Foret,50.585123,4.599313,0,stoparea:TEC:Bgntffo,,1,,
TEC:Bgntffo2,Gentinnes Ferme Foret,50.585033,4.599227,0,stoparea:TEC:Bgntffo,,1,,
TEC:Bgntpla1,Gentinnes Place,50.582215,4.601671,0,stoparea:TEC:Bgntpla,,1,,
TEC:Bgntpla2,Gentinnes Place,50.582207,4.601176,0,stoparea:TEC:Bgntpla,,1,,
TEC:Bgntpos1,Gentinnes Poste,50.578841,4.607231,0,stoparea:TEC:Bgntpos,,1,,
TEC:Bgntpos2,Gentinnes Poste,50.578786,4.607711,0,stoparea:TEC:Bgntpos,,1,,
TEC:Bgnttma1,Gentinnes Taillé Madame,50.567651,4.596743,0,stoparea:TEC:Bgnttma,,1,,
TEC:Bgnttma2,Gentinnes Taillé Madame,50.567705,4.596884,0,stoparea:TEC:Bgnttma,,1,,
TEC:Bgnvbsi1,Genval Avenue du Beau Site,50.726268,4.506869,0,stoparea:TEC:Bgnvbsi,,1,,
TEC:Bgnvbsi2,Genval Avenue du Beau Site,50.72589,4.507066,0,stoparea:TEC:Bgnvbsi,,1,,
TEC:Bgnvcha1,Genval Chapelle,50.723274,4.491352,0,stoparea:TEC:Bgnvcha,,1,,
TEC:Bgnvcha2,Genval Chapelle,50.723202,4.491239,0,stoparea:TEC:Bgnvcha,,1,,
TEC:Bgnvcom1,Genval Combattants,50.721493,4.508455,0,,,1,,
TEC:Bgnvcom2,Genval Petite Rue du Vallon,50.719682,4.504031,0,,,1,,
TEC:Bgnvdep1,Genval Déportés,50.717234,4.498048,0,stoparea:TEC:Bgnvdep,,1,,
TEC:Bgnvdep2,Genval Déportés,50.717144,4.498147,0,stoparea:TEC:Bgnvdep,,1,,
TEC:Bgnvfai1,Genval Avenue de la Faisanderie,50.728929,4.498846,0,stoparea:TEC:Bgnvfai,,1,,
TEC:Bgnvfai2,Genval Avenue de la Faisanderie,50.728813,4.498661,0,stoparea:TEC:Bgnvfai,,1,,
TEC:Bgnvgar1,Genval Gare,50.725296,4.51508,0,stoparea:TEC:Bgnvgar,,1,,
TEC:Bgnvgir1,Genval Gérondal,50.714458,4.488695,0,stoparea:TEC:Bgnvgir,,1,,
TEC:Bgnvgir2,Genval Gérondal,50.713039,4.487418,0,stoparea:TEC:Bgnvgir,,1,,
TEC:Bgnvoha1,Genval Route d'Ohain,50.717824,4.492938,0,stoparea:TEC:Bgnvoha,,1,,
TEC:Bgnvoha2,Genval Route d'Ohain,50.717861,4.492782,0,stoparea:TEC:Bgnvoha,,1,,
TEC:Bgnvoha3,Genval Route d'Ohain,50.71697,4.492879,0,stoparea:TEC:Bgnvoha,,1,,
TEC:Bgnvoha4,Genval Route d'Ohain,50.716925,4.493021,0,stoparea:TEC:Bgnvoha,,1,,
TEC:Bgnvoha6,Genval Route d'Ohain,50.717518,4.49373,0,stoparea:TEC:Bgnvoha,,1,,
TEC:Bgnvpap1,Genval Papeterie,50.721456,4.516442,0,stoparea:TEC:Bgnvpap,,1,,
TEC:Bgnvpap2,Genval Papeterie,50.722328,4.516034,0,stoparea:TEC:Bgnvpap,,1,,
TEC:Bgnvpco3,Genval Place Communale,50.716415,4.499533,0,stoparea:TEC:Bgnvpco,,1,,
TEC:Bgnvpos1,Genval Poste,50.723331,4.511916,0,stoparea:TEC:Bgnvpos,,1,,
TEC:Bgnvpos2,Genval Poste,50.723161,4.511363,0,stoparea:TEC:Bgnvpos,,1,,
TEC:Bgnvqve1,Genval Quatre Vents,50.724089,4.502104,0,stoparea:TEC:Bgnvqve,,1,,
TEC:Bgnvtas1,Genval Rue de la Tasnière,50.726092,4.504135,0,stoparea:TEC:Bgnvtas,,1,,
TEC:Bgnvtil2,Genval Rue du Tilleul,50.721943,4.50003,0,stoparea:TEC:Bgnvtil,,1,,
TEC:Bgnvval1,Genval Vallon,50.720366,4.502872,0,stoparea:TEC:Bgnvval,,1,,
TEC:Bgnvval2,Genval Vallon,50.720106,4.50263,0,stoparea:TEC:Bgnvval,,1,,
TEC:Bgnvvol2,Genval Rue des Volontaires,50.719565,4.496143,0,stoparea:TEC:Bgnvvol,,1,,
TEC:Bgoegma1,Goetsenhoven Grote Markt,50.766843,4.949659,0,stoparea:TEC:Bgoegma,,1,,
TEC:Bgoegma2,Goetsenhoven Grote Markt,50.766725,4.949828,0,stoparea:TEC:Bgoegma,,1,,
TEC:Bgoekaz1,Goetsenhoven Kazernen,50.78308,4.947718,0,stoparea:TEC:Bgoekaz,,1,,
TEC:Bgoekaz2,Goetsenhoven Kazernen,50.783027,4.947533,0,stoparea:TEC:Bgoekaz,,1,,
TEC:Bgoemgr1,Goetsenhoven Meer Grens,50.772305,4.969972,0,stoparea:TEC:Bgoemgr,,1,,
TEC:Bgoemgr2,Goetsenhoven Meer Grens,50.772119,4.969516,0,stoparea:TEC:Bgoemgr,,1,,
TEC:Bgoemho1,Goetsenhoven Meer Hoeve,50.772724,4.979419,0,stoparea:TEC:Bgoemho,,1,,
TEC:Bgoemho2,Goetsenhoven Meer Hoeve,50.772616,4.979389,0,stoparea:TEC:Bgoemho,,1,,
TEC:Bgoesch1,Goetsenhoven Scholen,50.769557,4.958907,0,stoparea:TEC:Bgoesch,,1,,
TEC:Bgoesch2,Goetsenhoven Scholen,50.769504,4.958736,0,stoparea:TEC:Bgoesch,,1,,
TEC:Bgoesch3,Goetsenhoven Scholen,50.769198,4.958704,0,stoparea:TEC:Bgoesch,,1,,
TEC:Bgoesch4,Goetsenhoven Scholen,50.769306,4.958649,0,stoparea:TEC:Bgoesch,,1,,
TEC:Bgoestu1,Goetsenhoven Stukens,50.769303,4.948513,0,stoparea:TEC:Bgoestu,,1,,
TEC:Bgoestu2,Goetsenhoven Stukens,50.769322,4.948343,0,stoparea:TEC:Bgoestu,,1,,
TEC:Bgoevli1,Goetsenhoven Vliegplein,50.778313,4.951701,0,stoparea:TEC:Bgoevli,,1,,
TEC:Bgoevli2,Goetsenhoven Vliegplein,50.778251,4.95153,0,stoparea:TEC:Bgoevli,,1,,
TEC:Bgoewat1,Goetsenhoven Watervergaarbak,50.772797,4.956254,0,stoparea:TEC:Bgoewat,,1,,
TEC:Bgoewat2,Goetsenhoven Watervergaarbak,50.772582,4.956209,0,stoparea:TEC:Bgoewat,,1,,
TEC:Bgrhcen1,Grand-Rosiere-Hottomont Centre,50.632249,4.866639,0,stoparea:TEC:Bgrhcen,,1,,
TEC:Bgrhcen2,Grand-Rosiere-Hottomont Centre,50.632251,4.866314,0,stoparea:TEC:Bgrhcen,,1,,
TEC:Bgrhche1,Grand-Rosiere-Hottomont Le Chenois,50.629336,4.851781,0,stoparea:TEC:Bgrhche,,1,,
TEC:Bgrhche2,Grand-Rosiere-Hottomont Le Chenois,50.629358,4.850905,0,stoparea:TEC:Bgrhche,,1,,
TEC:Bgrhcro1,Grand-Rosiere-Hottomont Café des Routiers,50.629129,4.871002,0,stoparea:TEC:Bgrhcro,,1,,
TEC:Bgrhcro2,Grand-Rosiere-Hottomont Café des Routiers,50.62904,4.870831,0,stoparea:TEC:Bgrhcro,,1,,
TEC:Bgrhhot1,Grand-Rosiere-Hottomont Hottomont,50.625181,4.875496,0,stoparea:TEC:Bgrhhot,,1,,
TEC:Bgrhhot2,Grand-Rosiere-Hottomont Hottomont,50.624821,4.875634,0,stoparea:TEC:Bgrhhot,,1,,
TEC:Bgrhpos1,Grand-Rosiere-Hottomont Poste,50.635552,4.863705,0,stoparea:TEC:Bgrhpos,,1,,
TEC:Bgrhpos2,Grand-Rosiere-Hottomont Poste,50.635355,4.863647,0,stoparea:TEC:Bgrhpos,,1,,
TEC:Bgrmfga1,Grand-Manil Ferme de la Gatte,50.565627,4.668776,0,stoparea:TEC:Bgrmfga,,1,,
TEC:Bgrmfga2,Grand-Manil Ferme de la Gatte,50.565591,4.668607,0,stoparea:TEC:Bgrmfga,,1,,
TEC:Bgrmfon1,Grand-Manil Fontenelle,50.562204,4.674612,0,stoparea:TEC:Bgrmfon,,1,,
TEC:Bgrmfon2,Grand-Manil Fontenelle,50.562124,4.674512,0,stoparea:TEC:Bgrmfon,,1,,
TEC:Bgrmpco1,Grand-Manil Place Communale,50.557291,4.682963,0,stoparea:TEC:Bgrmpco,,1,,
TEC:Bgrmpsn1,Grand-Manil Penteville S.N.C.B,50.564231,4.669614,0,stoparea:TEC:Bgrmpsn,,1,,
TEC:Bgrmpsn2,Grand-Manil Penteville S.N.C.B,50.564096,4.66967,0,stoparea:TEC:Bgrmpsn,,1,,
TEC:Bgrmver1,Grand-Manil Rue Verlaine,50.558966,4.685359,0,stoparea:TEC:Bgrmver,,1,,
TEC:Bgrmver2,Grand-Manil Rue Verlaine,50.560268,4.685862,0,stoparea:TEC:Bgrmver,,1,,
TEC:Bgrmver3,Grand-Manil Rue Verlaine,50.560366,4.686243,0,stoparea:TEC:Bgrmver,,1,,
TEC:Bgzdast1,Grez-Doiceau Ancienne Station,50.736849,4.702381,0,stoparea:TEC:Bgzdast,,1,,
TEC:Bgzdast2,Grez-Doiceau Ancienne Station,50.736742,4.702267,0,stoparea:TEC:Bgzdast,,1,,
TEC:Bgzdcen1,Grez-Doiceau Centry,50.741772,4.687766,0,stoparea:TEC:Bgzdcen,,1,,
TEC:Bgzdcen2,Grez-Doiceau Centry,50.741637,4.687751,0,stoparea:TEC:Bgzdcen,,1,,
TEC:Bgzdcwa1,Grez-Doiceau Chaussée de Wavre,50.746512,4.68665,0,stoparea:TEC:Bgzdcwa,,1,,
TEC:Bgzdcwa2,Grez-Doiceau Chaussée de Wavre,50.746422,4.686735,0,stoparea:TEC:Bgzdcwa,,1,,
TEC:Bgzddfh1,Doiceau Ferme Hallaux,50.731823,4.662457,0,stoparea:TEC:Bgzddfh,,1,,
TEC:Bgzddfh2,Doiceau Ferme Hallaux,50.731805,4.662627,0,stoparea:TEC:Bgzddfh,,1,,
TEC:Bgzddge1,Doiceau Rue des Genêts,50.738758,4.66454,0,stoparea:TEC:Bgzddge,,1,,
TEC:Bgzddge2,Doiceau Rue des Genêts,50.738498,4.664213,0,stoparea:TEC:Bgzddge,,1,,
TEC:Bgzddge4,Doiceau Rue des Genêts,50.737943,4.663473,0,stoparea:TEC:Bgzddge,,1,,
TEC:Bgzddmo1,Doiceau Chemin des Monts,50.740972,4.670788,0,stoparea:TEC:Bgzddmo,,1,,
TEC:Bgzddmo2,Doiceau Chemin des Monts,50.740864,4.670886,0,stoparea:TEC:Bgzddmo,,1,,
TEC:Bgzddub1,Grez-Doiceau Place Dubois,50.738674,4.696004,0,stoparea:TEC:Bgzddub,,1,,
TEC:Bgzddur1,Doiceau Drève d'Ursel,50.734372,4.66413,0,stoparea:TEC:Bgzddur,,1,,
TEC:Bgzddur2,Doiceau Drève d'Ursel,50.734309,4.664286,0,stoparea:TEC:Bgzddur,,1,,
TEC:Bgzdegl3,Doiceau Eglise,50.728278,4.663639,0,stoparea:TEC:Bgzdegl,,1,,
TEC:Bgzdegl4,Doiceau Eglise,50.728305,4.663809,0,stoparea:TEC:Bgzdegl,,1,,
TEC:Bgzdfpo1,Grez-Doiceau Rue Frère Pouls 46,50.721484,4.662959,0,stoparea:TEC:Bgzdfpo,,1,,
TEC:Bgzdfpo2,Grez-Doiceau Rue Frère Pouls 46,50.721691,4.662974,0,stoparea:TEC:Bgzdfpo,,1,,
TEC:Bgzdgli1,Grez-Doiceau Garage Libouton,50.743274,4.677433,0,stoparea:TEC:Bgzdgli,,1,,
TEC:Bgzdgli2,Grez-Doiceau Garage Libouton,50.743254,4.678028,0,stoparea:TEC:Bgzdgli,,1,,
TEC:Bgzdgpa1,Gastuche Papeteries,50.731109,4.645809,0,stoparea:TEC:Bgzdgpa,,1,,
TEC:Bgzdgpa2,Gastuche Papeteries,50.731423,4.64608,0,stoparea:TEC:Bgzdgpa,,1,,
TEC:Bgzdgst1,Gastuche Rue de la Station,50.735188,4.650423,0,stoparea:TEC:Bgzdgst,,1,,
TEC:Bgzdgst2,Gastuche Rue de la Station,50.73508,4.650521,0,stoparea:TEC:Bgzdgst,,1,,
TEC:Bgzdgth1,Gastuche La Thermogène,50.736266,4.654594,0,stoparea:TEC:Bgzdgth,,1,,
TEC:Bgzdgth2,Gastuche La Thermogène,50.736256,4.655104,0,stoparea:TEC:Bgzdgth,,1,,
TEC:Bgzdn251,Grez-Doiceau N25,50.746861,4.693723,0,stoparea:TEC:Bgzdn25,,1,,
TEC:Bgzdn252,Grez-Doiceau N25,50.746799,4.693581,0,stoparea:TEC:Bgzdn25,,1,,
TEC:Bgzdpco1,Grez-Doiceau Place Communale,50.73861,4.696528,0,stoparea:TEC:Bgzdpco,,1,,
TEC:Bgzdpco2,Grez-Doiceau Place Communale,50.738484,4.696556,0,stoparea:TEC:Bgzdpco,,1,,
TEC:Bgzdpis1,Gastuche Pisselet,50.737316,4.658978,0,stoparea:TEC:Bgzdpis,,1,,
TEC:Bgzdpis2,Gastuche Pisselet,50.737261,4.659303,0,stoparea:TEC:Bgzdpis,,1,,
TEC:Bgzdpos1,Grez-Doiceau Poste,50.739959,4.699569,0,stoparea:TEC:Bgzdpos,,1,,
TEC:Bgzdpos2,Grez-Doiceau Poste,50.739878,4.699385,0,stoparea:TEC:Bgzdpos,,1,,
TEC:Bgzdpos3,Grez-Doiceau Poste,50.738664,4.699829,0,stoparea:TEC:Bgzdpos,,1,,
TEC:Bgzdsta1,Grez-Doiceau Rue du Stampia,50.744748,4.697095,0,stoparea:TEC:Bgzdsta,,1,,
TEC:Bgzdsta2,Grez-Doiceau Rue du Stampia,50.744839,4.696812,0,stoparea:TEC:Bgzdsta,,1,,
TEC:Bhaawdr1,Haasrode Weerten Dreef,50.807946,4.706646,0,stoparea:TEC:Bhaawdr,,1,,
TEC:Bhaawdr2,Haasrode Weerten Dreef,50.808332,4.706776,0,stoparea:TEC:Bhaawdr,,1,,
TEC:Bhakmkr1,Goetsenhoven Meer Kruispunt,50.773308,4.976081,0,stoparea:TEC:Bhakmkr,,1,,
TEC:Bhakmkr2,Goetsenhoven Meer Kruispunt,50.773138,4.975767,0,stoparea:TEC:Bhakmkr,,1,,
TEC:Bhalalb1,Halle Albertstraat,50.728918,4.243046,0,stoparea:TEC:Bhalalb,,1,,
TEC:Bhalalb2,Halle Albertstraat,50.728872,4.242452,0,stoparea:TEC:Bhalalb,,1,,
TEC:Bhalark2,Halle Arkenvest,50.7335,4.232807,0,stoparea:TEC:Bhalark,,1,,
TEC:Bhalath1,Halle Atheneum,50.741101,4.237205,0,stoparea:TEC:Bhalath,,1,,
TEC:Bhalber2,Halle Bergensepoort,50.731826,4.231268,0,stoparea:TEC:Bhalber,,1,,
TEC:Bhalber3,Halle Bergensepoort,50.730613,4.231526,0,stoparea:TEC:Bhalber,,1,,
TEC:Bhalcbr1,Halle Café Bracke,50.712391,4.2579,0,stoparea:TEC:Bhalcbr,,1,,
TEC:Bhalcbr2,Halle Café Bracke,50.711519,4.257917,0,stoparea:TEC:Bhalcbr,,1,,
TEC:Bhaldbo1,Halle Don Bosco,50.742666,4.229749,0,stoparea:TEC:Bhaldbo,,1,,
TEC:Bhaless1,Halle Nijvelsesteenweg,50.720045,4.252275,0,stoparea:TEC:Bhaless,,1,,
TEC:Bhaless2,Halle Nijvelsesteenweg,50.719749,4.252403,0,stoparea:TEC:Bhaless,,1,,
TEC:Bhaleur1,Halle Europalaan,50.721157,4.225393,0,stoparea:TEC:Bhaleur,,1,,
TEC:Bhaleur2,Halle Europalaan,50.721229,4.225195,0,stoparea:TEC:Bhaleur,,1,,
TEC:Bhalgar1,Halle Station,50.73368,4.240937,0,stoparea:TEC:Bhalgar,,1,,
TEC:Bhalgar2,Halle Station,50.733815,4.241107,0,stoparea:TEC:Bhalgar,,1,,
TEC:Bhalgja1,Halle Groene Jager,50.727154,4.218846,0,stoparea:TEC:Bhalgja,,1,,
TEC:Bhalgja2,Halle Groene Jager,50.727406,4.219128,0,stoparea:TEC:Bhalgja,,1,,
TEC:Bhalh311,Halle Huis 31,50.729401,4.225538,0,stoparea:TEC:Bhalh31,,1,,
TEC:Bhalh312,Halle Huis 31,50.729419,4.225099,0,stoparea:TEC:Bhalh31,,1,,
TEC:Bhalker1,Halle Kerkhof,50.718674,4.223333,0,stoparea:TEC:Bhalker,,1,,
TEC:Bhalker2,Halle Kerkhof,50.718619,4.223022,0,stoparea:TEC:Bhalker,,1,,
TEC:Bhalkrk1,Halle Kerk,50.730438,4.244005,0,stoparea:TEC:Bhalkrk,,1,,
TEC:Bhalomo1,Halle Kruisstraat,50.722092,4.249621,0,stoparea:TEC:Bhalomo,,1,,
TEC:Bhalomo2,Halle Kruisstraat,50.722029,4.249452,0,stoparea:TEC:Bhalomo,,1,,
TEC:Bhalpar2,Halle Park,50.732965,4.237001,0,,,1,,
TEC:Bhalpar3,Halle Park - Suikerkaai,50.731968,4.237542,0,,,1,,
TEC:Bhalrat1,Halle Rattenput,50.723209,4.227115,0,stoparea:TEC:Bhalrat,,1,,
TEC:Bhalrat2,Halle Rattenput,50.724954,4.228214,0,stoparea:TEC:Bhalrat,,1,,
TEC:Bhalsro2,Halle Sint-Rochus,50.731826,4.23886,0,stoparea:TEC:Bhalsro,,1,,
TEC:Bhaltre1,Halle Treimeleer,50.707673,4.259582,0,stoparea:TEC:Bhaltre,,1,,
TEC:Bhaltre2,Halle Treimeleer,50.707637,4.259398,0,stoparea:TEC:Bhaltre,,1,,
TEC:Bhalvel1,Halle Van De Velde,50.715383,4.256336,0,stoparea:TEC:Bhalvel,,1,,
TEC:Bhalvel2,Halle Van De Velde,50.715347,4.256138,0,stoparea:TEC:Bhalvel,,1,,
TEC:Bhalvla1,Halle Vlasmarkt,50.700476,4.264114,0,stoparea:TEC:Bhalvla,,1,,
TEC:Bhalvla2,Halle Vlasmarkt,50.70062,4.263774,0,stoparea:TEC:Bhalvla,,1,,
TEC:Bhalwat1,Halle Leopoldstraat,50.725829,4.246284,0,stoparea:TEC:Bhalwat,,1,,
TEC:Bhalwat2,Halle Leopoldstraat,50.725972,4.245873,0,stoparea:TEC:Bhalwat,,1,,
TEC:Bhanath1,Hannut Athénée Royal,50.67348,5.075413,0,stoparea:TEC:Bhanath,,1,,
TEC:Bhanath2,Hannut Athénée Royal,50.674167,5.074773,0,stoparea:TEC:Bhanath,,1,,
TEC:Bhancom1,Hannut Centre Commercial,50.664284,5.092745,0,stoparea:TEC:Bhancom,,1,,
TEC:Bhancom2,Hannut Centre Commercial,50.66415,5.092686,0,stoparea:TEC:Bhancom,,1,,
TEC:Bhancre1,Hannut Route de Crehen,50.669154,5.071189,0,stoparea:TEC:Bhancre,,1,,
TEC:Bhancre2,Hannut Route de Crehen,50.669028,5.071187,0,stoparea:TEC:Bhancre,,1,,
TEC:Bhandub1,Hannut Rue Dubois,50.683502,5.065262,0,stoparea:TEC:Bhandub,,1,,
TEC:Bhandub2,Hannut Rue Dubois,50.683871,5.065126,0,stoparea:TEC:Bhandub,,1,,
TEC:Bhanmou1,Hannut Rue du Moulin,50.676547,5.072219,0,stoparea:TEC:Bhanmou,,1,,
TEC:Bhanmou2,Hannut Rue du Moulin,50.676916,5.072069,0,stoparea:TEC:Bhanmou,,1,,
TEC:Bhantui1,Hannut Rue des Tuileries,50.692401,5.056363,0,stoparea:TEC:Bhantui,,1,,
TEC:Bhantui2,Hannut Rue des Tuileries,50.692355,5.056646,0,stoparea:TEC:Bhantui,,1,,
TEC:Bhanwav1,Hannut Chaussée de Wavre 50,50.66905,5.064539,0,stoparea:TEC:Bhanwav,,1,,
TEC:Bhanwav2,Hannut Chaussée de Wavre 50,50.668924,5.064537,0,stoparea:TEC:Bhanwav,,1,,
TEC:Bhen5ma1,Hennuyeres Cinq Maisons,50.63408,4.158866,0,stoparea:TEC:Bhen5ma,,1,,
TEC:Bhen5ma2,Hennuyeres Cinq Maisons,50.634178,4.158838,0,stoparea:TEC:Bhen5ma,,1,,
TEC:Bhenard1,Hennuyeres Ardennes,50.641829,4.191236,0,stoparea:TEC:Bhenard,,1,,
TEC:Bhenard2,Hennuyeres Ardennes,50.641891,4.191108,0,stoparea:TEC:Bhenard,,1,,
TEC:Bhenard3,Hennuyeres Ardennes,50.642413,4.191205,0,stoparea:TEC:Bhenard,,1,,
TEC:Bhenard4,Hennuyeres Ardennes,50.642799,4.190808,0,stoparea:TEC:Bhenard,,1,,
TEC:Bhenasc1,Hennuyeres Rue d'Ascotte,50.634591,4.163614,0,stoparea:TEC:Bhenasc,,1,,
TEC:Bhenasc2,Hennuyeres Rue d'Ascotte,50.634608,4.162667,0,stoparea:TEC:Bhenasc,,1,,
TEC:Bhencha1,Hennuyeres Chapelle,50.63216,4.188219,0,stoparea:TEC:Bhencha,,1,,
TEC:Bhencha2,Hennuyeres Chapelle,50.631925,4.187739,0,stoparea:TEC:Bhencha,,1,,
TEC:Bhenche1,Hennuyeres Rue du Chenois,50.646308,4.175977,0,stoparea:TEC:Bhenche,,1,,
TEC:Bhenche2,Hennuyeres Rue du Chenois,50.646389,4.175581,0,stoparea:TEC:Bhenche,,1,,
TEC:Bheneco1,Hennuyeres Ecole,50.638908,4.175046,0,stoparea:TEC:Bheneco,,1,,
TEC:Bheneco2,Hennuyeres Ecole,50.639313,4.174974,0,stoparea:TEC:Bheneco,,1,,
TEC:Bhenfer1,Hennuyeres La Ferme,50.635873,4.151352,0,stoparea:TEC:Bhenfer,,1,,
TEC:Bhenfer2,Hennuyeres La Ferme,50.635809,4.151027,0,stoparea:TEC:Bhenfer,,1,,
TEC:Bhenfla1,Hennuyeres Flament,50.630822,4.147616,0,stoparea:TEC:Bhenfla,,1,,
TEC:Bhenfla2,Hennuyeres Flament,50.630417,4.147278,0,stoparea:TEC:Bhenfla,,1,,
TEC:Bhengar1,Hennuyeres Gare,50.650489,4.176314,0,stoparea:TEC:Bhengar,,1,,
TEC:Bhengar2,Hennuyeres Gare,50.650561,4.176228,0,stoparea:TEC:Bhengar,,1,,
TEC:Bhengou1,Hennuyeres Gourmette,50.641073,4.184891,0,stoparea:TEC:Bhengou,,1,,
TEC:Bhengou2,Hennuyeres Gourmette,50.641018,4.184764,0,stoparea:TEC:Bhengou,,1,,
TEC:Bhengri1,Hennuyeres Avenue du Griffon,50.640224,4.194338,0,stoparea:TEC:Bhengri,,1,,
TEC:Bhengri2,Hennuyeres Avenue du Griffon,50.640287,4.194507,0,stoparea:TEC:Bhengri,,1,,
TEC:Bhenhau1,Hennuyeres Hameau Aulnois,50.634624,4.188832,0,stoparea:TEC:Bhenhau,,1,,
TEC:Bhenhau2,Hennuyeres Hameau Aulnois,50.634534,4.188775,0,stoparea:TEC:Bhenhau,,1,,
TEC:Bhenmal1,Hennuyeres Chemin Malpaix,50.63667,4.186378,0,stoparea:TEC:Bhenmal,,1,,
TEC:Bhenmal2,Hennuyeres Chemin Malpaix,50.636616,4.186265,0,stoparea:TEC:Bhenmal,,1,,
TEC:Bhenpla1,Hennuyeres Place,50.63881,4.170028,0,stoparea:TEC:Bhenpla,,1,,
TEC:Bhenpla2,Hennuyeres Place,50.63871,4.169731,0,stoparea:TEC:Bhenpla,,1,,
TEC:Bhenpln1,Hennuyeres Planois,50.635857,4.178239,0,stoparea:TEC:Bhenpln,,1,,
TEC:Bhenpln2,Hennuyeres Planois,50.636513,4.178236,0,stoparea:TEC:Bhenpln,,1,,
TEC:Bhenrcr1,Hennuyeres Chemin Ry à la Croix,50.631184,4.179714,0,stoparea:TEC:Bhenrcr,,1,,
TEC:Bhenrcr2,Hennuyeres Chemin Ry à la Croix,50.631274,4.179756,0,stoparea:TEC:Bhenrcr,,1,,
TEC:Bhenron1,Hennuyeres Ronchy,50.640407,4.173499,0,stoparea:TEC:Bhenron,,1,,
TEC:Bhenron2,Hennuyeres Ronchy,50.640497,4.173414,0,stoparea:TEC:Bhenron,,1,,
TEC:Bhensei1,Hennuyeres Rue du Seigneur,50.647444,4.183268,0,stoparea:TEC:Bhensei,,1,,
TEC:Bhensei2,Hennuyeres Rue du Seigneur,50.64774,4.183098,0,stoparea:TEC:Bhensei,,1,,
TEC:Bhercsj1,Herbais Rue Chapelle St-Jean,50.726052,4.924412,0,stoparea:TEC:Bhercsj,,1,,
TEC:Bhercsj2,Herbais Rue Chapelle St-Jean,50.72624,4.924556,0,stoparea:TEC:Bhercsj,,1,,
TEC:Bhevcur1,Hevillers Cure,50.621066,4.616432,0,stoparea:TEC:Bhevcur,,1,,
TEC:Bhevcur2,Hevillers Cure,50.621076,4.61622,0,stoparea:TEC:Bhevcur,,1,,
TEC:Bhevgar1,Heverlee Station,50.863092,4.695836,0,stoparea:TEC:Bhevgar,,1,,
TEC:Bhevgar2,Heverlee Station,50.863128,4.696063,0,stoparea:TEC:Bhevgar,,1,,
TEC:Bhevgro1,Heverlee Groenstraat,50.866148,4.69617,0,stoparea:TEC:Bhevgro,,1,,
TEC:Bhevgro2,Heverlee Groenstraat,50.865141,4.696106,0,stoparea:TEC:Bhevgro,,1,,
TEC:Bhevhha1,Heverlee H. Hartinstituut,50.858409,4.695732,0,stoparea:TEC:Bhevhha,,1,,
TEC:Bhevhha2,Heverlee H. Hartinstituut,50.858408,4.695959,0,stoparea:TEC:Bhevhha,,1,,
TEC:Bhevjac1,Heverlee De Jacht,50.848027,4.695404,0,stoparea:TEC:Bhevjac,,1,,
TEC:Bhevjac2,Heverlee De Jacht,50.848494,4.695649,0,stoparea:TEC:Bhevjac,,1,,
TEC:Bhevjal1,Heverlee De Jachtlaan,50.852063,4.695503,0,stoparea:TEC:Bhevjal,,1,,
TEC:Bhevjal2,Heverlee De Jachtlaan,50.852062,4.69573,0,stoparea:TEC:Bhevjal,,1,,
TEC:Bhevl3l1,Heverlee Leopold III Laan,50.855425,4.695612,0,stoparea:TEC:Bhevl3l,,1,,
TEC:Bhevl3l2,Heverlee Leopold III Laan,50.855424,4.695839,0,stoparea:TEC:Bhevl3l,,1,,
TEC:Bhevwzw1,Heverlee Weg naar Zoete Waters,50.838293,4.697977,0,stoparea:TEC:Bhevwzw,,1,,
TEC:Bhevwzw2,Heverlee Weg naar Zoete Waters,50.838787,4.698066,0,stoparea:TEC:Bhevwzw,,1,,
TEC:Bhlvgar1,Houtain-le-Val Garage,50.582971,4.411208,0,stoparea:TEC:Bhlvgar,,1,,
TEC:Bhlvgar2,Houtain-le-Val Garage,50.583169,4.411165,0,stoparea:TEC:Bhlvgar,,1,,
TEC:Bhlvlou1,Houtain-le-Val Route de Loupoigne,50.580387,4.420679,0,stoparea:TEC:Bhlvlou,,1,,
TEC:Bhlvlou2,Houtain-le-Val Route de Loupoigne,50.580675,4.420115,0,stoparea:TEC:Bhlvlou,,1,,
TEC:Bhlvvil1,Houtain-le-Val Village,50.581261,4.415216,0,stoparea:TEC:Bhlvvil,,1,,
TEC:Bhlvvil2,Houtain-le-Val Village,50.581486,4.416289,0,stoparea:TEC:Bhlvvil,,1,,
TEC:Bhlvvil3,Houtain-le-Val Village,50.581746,4.415922,0,stoparea:TEC:Bhlvvil,,1,,
TEC:Bhmmbog1,Hamme-Mille Rue Bogaerts,50.792697,4.748632,0,stoparea:TEC:Bhmmbog,,1,,
TEC:Bhmmcam1,Tourinnes-la-Grosse Camping,50.780067,4.737214,0,stoparea:TEC:Bhmmcam,,1,,
TEC:Bhmmcge1,Hamme-Mille Château de Guertechain,50.769847,4.709902,0,stoparea:TEC:Bhmmcge,,1,,
TEC:Bhmmcge2,Hamme-Mille Château de Guertechain,50.769793,4.710114,0,stoparea:TEC:Bhmmcge,,1,,
TEC:Bhmmcha1,Hamme-Mille Chabut,50.774622,4.721718,0,stoparea:TEC:Bhmmcha,,1,,
TEC:Bhmmcha2,Hamme-Mille Chabut,50.774693,4.721917,0,stoparea:TEC:Bhmmcha,,1,,
TEC:Bhmmcim1,Hamme-Mille Rue du Cimetière,50.785867,4.712826,0,stoparea:TEC:Bhmmcim,,1,,
TEC:Bhmmcim2,Hamme-Mille Rue du Cimetière,50.785903,4.713053,0,stoparea:TEC:Bhmmcim,,1,,
TEC:Bhmmcor1,Mille Rue St-Corneille,50.78472,4.738428,0,stoparea:TEC:Bhmmcor,,1,,
TEC:Bhmmcsc1,Mille Chapelle St-Corneille,50.788062,4.73905,0,stoparea:TEC:Bhmmcsc,,1,,
TEC:Bhmmgar1,Hamme-Mille Gare d'Autobus,50.778433,4.715877,0,stoparea:TEC:Bhmmgar,,1,,
TEC:Bhmmhde1,Hamme-Mille Habitation Degrève,50.790685,4.742531,0,stoparea:TEC:Bhmmhde,,1,,
TEC:Bhmmjco1,Mille Rue J. Coisman,50.793487,4.74617,0,stoparea:TEC:Bhmmjco,,1,,
TEC:Bhmmlad1,Hamme-Mille Ladrerie,50.779724,4.704656,0,stoparea:TEC:Bhmmlad,,1,,
TEC:Bhmmlad2,Hamme-Mille Ladrerie,50.779915,4.704034,0,stoparea:TEC:Bhmmlad,,1,,
TEC:Bhmmmon1,Hamme-Mille Monument,50.780247,4.716329,0,stoparea:TEC:Bhmmmon,,1,,
TEC:Bhmmmon2,Hamme-Mille Monument,50.780805,4.71622,0,stoparea:TEC:Bhmmmon,,1,,
TEC:Bhmmpos1,Hamme-Mille Poste,50.778472,4.717919,0,stoparea:TEC:Bhmmpos,,1,,
TEC:Bhmmpos2,Hamme-Mille Poste,50.778543,4.718118,0,stoparea:TEC:Bhmmpos,,1,,
TEC:Bhmmsca1,Hamme-Mille Rue Scayes,50.790647,4.745906,0,stoparea:TEC:Bhmmsca,,1,,
TEC:Bhmmtou1,Hamme-Mille Rue de Tourinnes,50.777887,4.727003,0,stoparea:TEC:Bhmmtou,,1,,
TEC:Bhmmtou2,Hamme-Mille Rue de Tourinnes,50.777779,4.72703,0,stoparea:TEC:Bhmmtou,,1,,
TEC:Bhmmvdu1,Hamme-Mille Val Duc,50.788612,4.71208,0,stoparea:TEC:Bhmmvdu,,1,,
TEC:Bhmmvdu2,Hamme-Mille Val Duc,50.788359,4.71239,0,stoparea:TEC:Bhmmvdu,,1,,
TEC:Bhoealt1,Hoegaarden Altenaken,50.769554,4.909176,0,stoparea:TEC:Bhoealt,,1,,
TEC:Bhoealt2,Hoegaarden Altenaken,50.76978,4.909009,0,stoparea:TEC:Bhoealt,,1,,
TEC:Bhoeboo1,Hoeilaart Boomgaard,50.75839,4.4593,0,stoparea:TEC:Bhoeboo,,1,,
TEC:Bhoeboo2,Hoeilaart Boomgaard,50.758301,4.459159,0,stoparea:TEC:Bhoeboo,,1,,
TEC:Bhoegbr1,Hoeilaart Groenendaal Brug,50.76776,4.444009,0,stoparea:TEC:Bhoegbr,,1,,
TEC:Bhoegbr2,Hoeilaart Groenendaal Brug,50.768911,4.443316,0,stoparea:TEC:Bhoegbr,,1,,
TEC:Bhoemel1,Hoeilaart Melkerij,50.765537,4.447677,0,stoparea:TEC:Bhoemel,,1,,
TEC:Bhoemel2,Hoeilaart Melkerij,50.765186,4.448087,0,stoparea:TEC:Bhoemel,,1,,
TEC:Bhptcha1,Henripont La Chapelle,50.598879,4.188346,0,stoparea:TEC:Bhptcha,,1,,
TEC:Bhptcha2,Henripont La Chapelle,50.598798,4.188318,0,stoparea:TEC:Bhptcha,,1,,
TEC:Bhptegl1,Henripont Eglise,50.597272,4.184397,0,stoparea:TEC:Bhptegl,,1,,
TEC:Bhptegl2,Henripont Eglise,50.597201,4.184482,0,stoparea:TEC:Bhptegl,,1,,
TEC:Bhptpla1,Henripont Place,50.599243,4.185519,0,stoparea:TEC:Bhptpla,,1,,
TEC:Bhptpla2,Henripont Place,50.600411,4.185162,0,stoparea:TEC:Bhptpla,,1,,
TEC:Bhtibru1,Haut-Ittre La Bruyère,50.663989,4.290178,0,stoparea:TEC:Bhtibru,,1,,
TEC:Bhtibru2,Haut-Ittre La Bruyère,50.664079,4.290333,0,stoparea:TEC:Bhtibru,,1,,
TEC:Bhticbr1,Haut-Ittre Chemin de la Bruyère,50.655088,4.289655,0,stoparea:TEC:Bhticbr,,1,,
TEC:Bhticbr2,Haut-Ittre Chemin de la Bruyère,50.655196,4.289725,0,stoparea:TEC:Bhticbr,,1,,
TEC:Bhtihau1,Haut-Ittre Hauts du Ry-Ternel,50.653646,4.297039,0,stoparea:TEC:Bhtihau,,1,,
TEC:Bhtihau2,Haut-Ittre Hauts du Ry-Ternel,50.653691,4.297548,0,stoparea:TEC:Bhtihau,,1,,
TEC:Bhtipir1,Haut-Ittre Boulevard Piron,50.657831,4.305023,0,stoparea:TEC:Bhtipir,,1,,
TEC:Bhtipir2,Haut-Ittre Boulevard Piron,50.657516,4.305703,0,stoparea:TEC:Bhtipir,,1,,
TEC:Bhtipir3,Haut-Ittre Boulevard Piron,50.657327,4.304897,0,stoparea:TEC:Bhtipir,,1,,
TEC:Bhtirin1,Haut-Ittre Ring,50.660515,4.299037,0,stoparea:TEC:Bhtirin,,1,,
TEC:Bhtirin2,Haut-Ittre Ring,50.660821,4.298655,0,stoparea:TEC:Bhtirin,,1,,
TEC:Bhvlbet1,Hevillers Bien-Être,50.626756,4.616999,0,stoparea:TEC:Bhvlbet,,1,,
TEC:Bhvlbet2,Hevillers Bien-Être,50.626801,4.616788,0,stoparea:TEC:Bhvlbet,,1,,
TEC:Bhvlpla1,Hevillers Place,50.62368,4.617351,0,stoparea:TEC:Bhvlpla,,1,,
TEC:Bhvlpla2,Hevillers Place,50.623735,4.617125,0,stoparea:TEC:Bhvlpla,,1,,
TEC:Bhvltol1,Hevillers Tollet,50.621492,4.627259,0,stoparea:TEC:Bhvltol,,1,,
TEC:Bhvltol2,Hevillers Tollet,50.621384,4.627231,0,stoparea:TEC:Bhvltol,,1,,
